id,name,address,city,state,latitude,longitude
3984,KFC123 West Northern Lights Blvd,123 West Northern Lights Blvd,Anchorage,AK,61.19536681,-149.8855715
3985,KFC1751 Abbot Road,1751 Abbot Road,Anchorage,AK,61.14102616,-149.8473468
3986,KFC3922 San Jeronimo Street,3922 San Jeronimo Street,Anchorage,AK,61.21156955,-149.8071561
3987,KFC3428 Airport Way,3428 Airport Way,Fairbanks,AK,64.83692398,-147.8005806
3988,KFC62 College Road,62 College Road,Fairbanks,AK,64.85461275,-147.7119184
3989,KFC1761 Palmer Wasilla Highway,1761 Palmer Wasilla Highway,Wasilla,AK,61.57818853,-149.407445
3990,KFC7285 U.S. Highway 431,7285 U.S. Highway 431,Albertville,AL,34.27631481,-86.20596854
3991,KFC955 Airport Drive,955 Airport Drive,Alexander City,AL,32.9207341,-85.95268935
3992,KFC2000 Quintard Avenue,2000 Quintard Avenue,Anniston,AL,33.67071917,-85.82687522
3993,KFC710 Brindlee Mountain Parkway,710 Brindlee Mountain Parkway,Arab,AL,34.32717738,-86.5029009
3994,"KFC205 U.S. Highway 72, W","205 U.S. Highway 72, W",Athens,AL,34.78981876,-86.97207039
3995,KFC1225 South Main Street,1225 South Main Street,Atmore,AL,31.00609969,-87.49367523
3996,KFC500 Cherry Street,500 Cherry Street,Attalla,AL,34.01843664,-86.07722894
3997,KFC1580 Opelika Road,1580 Opelika Road,Auburn,AL,32.62465756,-85.44643405
3998,"KFC1818 Ninth Avenue, North","1818 Ninth Avenue, North",Bessemer,AL,33.40682357,-86.96118651
3999,KFC1217 Carraway Boulevard,1217 Carraway Boulevard,Birmingham,AL,33.53166436,-86.80632551
4000,KFC1653 Center Point Road,1653 Center Point Road,Birmingham,AL,33.63105278,-86.68480163
4001,KFC1674 Gadsden Highway,1674 Gadsden Highway,Birmingham,AL,33.60194011,-86.6386053
4002,KFC1800 20th Street Ensley,1800 20th Street Ensley,Birmingham,AL,33.50944573,-86.88546095
4003,KFC1928 Bessemer Road,1928 Bessemer Road,Birmingham,AL,33.49210988,-86.88324525
4004,KFC7909 Crestwood Boulevard,7909 Crestwood Boulevard,Birmingham,AL,33.530811,-86.71397992
4005,KFC828 Green Springs Highway,828 Green Springs Highway,Birmingham,AL,33.45931097,-86.81707054
4006,KFC1254 U.S. 431,1254 U.S. 431,Boaz,AL,34.20419991,-86.15245169
4007,KFC1925 West Main Street,1925 West Main Street,Centre,AL,34.16076973,-85.71386918
4008,KFC104 Highway 280 B,104 Highway 280 B,Childersburg,AL,33.28342732,-86.36186682
4009,"KFC2035 Seventh Street, South","2035 Seventh Street, South",Clanton,AL,32.80317265,-86.58780077
4010,"KFC1620 Second Avenue, Southwest","1620 Second Avenue, Southwest",Cullman,AL,34.16100345,-86.83520262
4011,KFC5799 Alabama Highway 157,5799 Alabama Highway 157,Cullman,AL,34.20665126,-86.87160844
4012,KFC2208 Beltline Road,2208 Beltline Road,Decatur,AL,34.58442471,-87.02384025
4013,KFC105 Highway 80 East,105 Highway 80 East,Demopolis,AL,32.50366904,-87.83716497
4014,KFC109 N.E. Ross Clark Circle,109 N.E. Ross Clark Circle,Dothan,AL,31.25280005,-85.38714782
4015,KFC1801 S.E. Ross Clark Circle,1801 S.E. Ross Clark Circle,Dothan,AL,31.19251072,-85.37962518
4016,KFC4468-2 West Main Street,4468-2 West Main Street,Dothan,AL,31.23771154,-85.46029778
4017,KFC612 Boll Weevil Circle,612 Boll Weevil Circle,Enterprise,AL,31.31781486,-85.83080865
4018,KFC840 Liberty Hill Drive,840 Liberty Hill Drive,Evergreen,AL,31.45442614,-86.96242483
4019,KFC7159 Aaron Aronov Drive,7159 Aaron Aronov Drive,Fairfield,AL,33.46671534,-86.91581149
4020,KFC1302 North Pine Street,1302 North Pine Street,Florence,AL,34.81852785,-87.68704414
4021,KFC241 Cox Creek Parkway,241 Cox Creek Parkway,Florence,AL,34.83368141,-87.62967508
4022,KFC2460 South McKenzie Street,2460 South McKenzie Street,Foley,AL,30.37960382,-87.68360944
4023,KFC1229 Forestdale Boulevard,1229 Forestdale Boulevard,Forestdale,AL,33.56042996,-86.89200447
4024,KFC308 Greenhill Boulevard N.W,308 Greenhill Boulevard N.W,Fort Payne,AL,34.469054,-85.70190006
4025,KFC579 E. Meighan Boulevard,579 E. Meighan Boulevard,Gadsden,AL,34.00815875,-85.98401612
4026,KFC531 Fieldstown Road,531 Fieldstown Road,Gardendale,AL,33.65212536,-86.8208103
4027,KFC108 Greenville By-Pass,108 Greenville By-Pass,Greenville,AL,31.84846531,-86.63967864
4028,KFC1501 South Gunter,1501 South Gunter,Guntersville,AL,34.34433561,-86.30523821
4029,"KFC1301 Highway 31, North","1301 Highway 31, North",Hartselle,AL,34.45511169,-86.94711917
4030,KFC5692 Highway 278 East,5692 Highway 278 East,Hokes Bluff,AL,33.98561172,-85.8663718
4031,KFC3065 Allison Bonnett Memorial Drive,3065 Allison Bonnett Memorial Drive,Hueytown,AL,33.45027108,-86.98445673
4032,KFC1003 Jordan Lane,1003 Jordan Lane,Huntsville,AL,34.73613943,-86.6274285
4033,"KFC1690 Highway 72, E","1690 Highway 72, E",Huntsville,AL,34.77320701,-86.53272054
4034,KFC2404 Memorial Parkway,2404 Memorial Parkway,Huntsville,AL,34.71250278,-86.59105
4035,KFC4106 North College Ave,4106 North College Ave,Jackson,AL,31.55651,-87.87664
4036,"KFC1815 Ashville Road, NE, Highway 411","1815 Ashville Road, NE, Highway 411",Leeds,AL,33.56207407,-86.52242067
4037,KFC75835 Highway 77,75835 Highway 77,Lincoln,AL,33.59517067,-86.12154394
4038,KFC7874 Highway 72 West,7874 Highway 72 West,Madison,AL,34.75335879,-86.74467515
4039,KFC8966 Madison Boulevard,8966 Madison Boulevard,Madison,AL,34.6761037,-86.7535351
4040,"KFC21363 Highway 11, North","21363 Highway 11, North",McCalla,AL,33.24633176,-87.13690471
4041,KFC12276 U.S. Highway 231,12276 U.S. Highway 231,Meridianville,AL,34.87005539,-86.57066175
4042,KFC3226 Alabama Highway 14,3226 Alabama Highway 14,Millbrook,AL,32.50965396,-86.38145239
4043,KFC2351 St. Stephens,2351 St. Stephens,Mobile,AL,30.71950808,-88.08454376
4044,KFC2850 Springhill Ave,2850 Springhill Ave,Mobile,AL,30.69878754,-88.10854189
4045,KFC5109 Moffat Rd,5109 Moffat Rd,Mobile,AL,30.7204026,-88.15999502
4046,"KFC5437 Highway 90, W","5437 Highway 90, W",Mobile,AL,30.58716067,-88.16958859
4047,KFC775 Schillinger Road South,775 Schillinger Road South,Mobile,AL,30.67389263,-88.22450739
4048,KFC950 Main Street,950 Main Street,Montevallo,AL,33.10200441,-86.86041089
4049,KFC1955 Coliseum Boulevard,1955 Coliseum Boulevard,Montgomery,AL,32.41859253,-86.26882025
4050,KFC2528 Eastern Boulevard,2528 Eastern Boulevard,Montgomery,AL,32.34768671,-86.22256694
4051,KFC2687 Zelda Road,2687 Zelda Road,Montgomery,AL,32.36417641,-86.26734083
4052,KFC6808 Atlanta Highway,6808 Atlanta Highway,Montgomery,AL,32.38227733,-86.17904124
4053,KFC917 W. South Boulevard,917 W. South Boulevard,Montgomery,AL,32.32612999,-86.32661557
4054,KFC11884 Highway 157,11884 Highway 157,Moulton,AL,34.48777844,-87.27621212
4055,KFC1910 Woodward Avenue,1910 Woodward Avenue,Muscle Shoals,AL,34.74366914,-87.66782751
4056,KFC1901 32nd Street,1901 32nd Street,Northport,AL,33.23794305,-87.57687883
4057,KFC910 East Second Avenue,910 East Second Avenue,Oneonta,AL,33.95416991,-86.46665995
4058,"KFC101 Sixth Street, North","101 Sixth Street, North",Opelika,AL,32.65089124,-85.37783312
4059,KFC2024 U. S. Highway 78 East,2024 U. S. Highway 78 East,Oxford,AL,33.61467376,-85.78824033
4060,KFC630 Cahaba Valley Road,630 Cahaba Valley Road,Pelham,AL,33.33532272,-86.78239472
4061,KFC703 23rd St N,703 23rd St N,Pell City,AL,33.59562024,-86.28329667
4062,KFC1802 Stadium Drive,1802 Stadium Drive,Phenix City,AL,32.49742828,-85.01776655
4063,KFC601 13th Street,601 13th Street,Phenix City,AL,32.47079633,-85.00137521
4064,KFC206 Highway 278 Bypass East,206 Highway 278 Bypass East,Piedmont,AL,33.93375061,-85.61016
4065,KFC1913 Cobbs Ford Road,1913 Cobbs Ford Road,Prattville,AL,32.46045393,-86.41674297
4066,KFC15045 Hwy 43,15045 Hwy 43,Russellville,AL,34.50965958,-87.71764588
4067,KFC815 Highway 43 S,815 Highway 43 S,Saraland,AL,30.80337771,-88.07202814
4068,KFC23115 John T. Reid Parkway,23115 John T. Reid Parkway,Scottsboro,AL,34.65017436,-86.0289047
4069,KFC1326 Highland Avenue,1326 Highland Avenue,Selma,AL,32.43124617,-87.01698049
4070,KFC1560 Highway 77,1560 Highway 77,Southside,AL,33.93118322,-86.02432731
4071,KFC39 Springville Station,39 Springville Station,Springville,AL,33.77873576,-86.4302037
4072,KFC1204 Talladega Highway,1204 Talladega Highway,Sylacauga,AL,33.18453076,-86.24576169
4073,KFC219 Haynes Street,219 Haynes Street,Talladega,AL,33.43720266,-86.08220738
4074,"KFC32475 Highway 43, SW","32475 Highway 43, SW",Thomasville,AL,31.91392534,-87.74116281
4075,KFC101 Highway 231 North,101 Highway 231 North,Troy,AL,31.79241297,-85.97727534
4076,"KFC1101 Lurleen Wallace Boulevard, South","1101 Lurleen Wallace Boulevard, South",Tuscaloosa,AL,33.20333342,-87.56861888
4077,KFC1111 Skyland Boulevard,1111 Skyland Boulevard,Tuscaloosa,AL,33.16809467,-87.52178155
4078,KFC3006 20th Avenue,3006 20th Avenue,Valley,AL,32.84300909,-85.18009936
4079,KFC5278 U. S. Highway 231,5278 U. S. Highway 231,Wetumpka,AL,32.51761384,-86.21124895
4080,"KFC469 Highway 71, N","469 Highway 71, N",Alma,AR,35.49121667,-94.22614873
4081,KFC921 Clinton St,921 Clinton St,Arkadelphia,AR,34.12034645,-93.05732508
4082,KFC1311 St. Louis Street,1311 St. Louis Street,Batesville,AR,35.76616528,-91.64106697
4083,KFC522 N. East Street,522 N. East Street,Benton,AR,34.56845987,-92.58545613
4084,KFC1618 E Centerton Blvd,1618 E Centerton Blvd,Bentonville,AR,36.35790005,-94.25760222
4085,KFC903 N. Walton Boulevard,903 N. Walton Boulevard,Bentonville,AR,36.38213626,-94.22132303
4086,KFC930 West Trimble,930 West Trimble,Berryville,AR,36.37686355,-93.58395104
4087,KFC901 North 6th Street,901 North 6th Street,Blytheville,AR,35.93516908,-89.9100974
4088,KFC711 E. Main,711 E. Main,Booneville,AR,35.14061048,-93.91213236
4089,KFC2007 North Main,2007 North Main,Brinkley,AR,34.91207684,-91.19593215
4090,KFC116 Bryant Avenue,116 Bryant Avenue,Bryant,AR,34.62245174,-92.49760522
4091,KFC1003 W. Main,1003 W. Main,Cabot,AR,34.97639984,-92.02682015
4092,KFC1440 U.S. Highway 278 West,1440 U.S. Highway 278 West,Camden,AR,33.58406206,-92.80449146
4093,KFC1240 South Rogers,1240 South Rogers,Clarksville,AR,35.45396252,-93.46505138
4094,KFC1333 Highway 65 S,1333 Highway 65 S,Clinton,AR,35.57608362,-92.45187084
4095,KFC2670 Donaghey Street,2670 Donaghey Street,Conway,AR,35.11207641,-92.44844614
4096,KFC201 First Street,201 First Street,Crossett,AR,33.13529934,-91.96000897
4097,KFC603 E. Collin Raye Drive,603 E. Collin Raye Drive,De Queen,AR,34.04560219,-94.33104571
4098,KFC433 W. Hillsboro Street,433 W. Hillsboro Street,El Dorado,AR,33.20741463,-92.66922722
4099,KFC1882 W. Martin Luther King Jr. Boulevard,1882 W. Martin Luther King Jr. Boulevard,Fayetteville,AR,36.05659162,-94.18624046
4100,KFC2700 N. Washington Street,2700 N. Washington Street,Forrest City,AR,35.02871295,-90.78980659
4101,KFC1601 Highway 71,1601 Highway 71,Fort Smith,AR,35.32811637,-94.41815881
4102,KFC4207 Grand Avenue,4207 Grand Avenue,Fort Smith,AR,35.38568462,-94.38463678
4103,KFC2291 Highway 62,2291 Highway 62,Hardy,AR,36.26689332,-91.51534761
4104,"KFC1715 Highway 25, N","1715 Highway 25, N",Heber Springs,AR,35.50969777,-92.0292184
4105,KFC2017 North Hazel,2017 North Hazel,Hope,AR,33.68806337,-93.59595442
4106,KFC141 E Grand Avenue,141 E Grand Avenue,Hot Springs,AR,34.50320693,-93.0489265
4107,KFC4010 Central Avenue,4010 Central Avenue,Hot Springs,AR,34.45613394,-93.06329441
4108,KFC139 Southwest Drive,139 Southwest Drive,Jonesboro,AR,35.82003363,-90.70635615
4109,KFC2003 West Parker Road,2003 West Parker Road,Jonesboro,AR,35.81720619,-90.73293787
4110,KFC2020 South Caraway Road,2020 South Caraway Road,Jonesboro,AR,35.82027817,-90.67776926
4111,KFC100 Markham Park Drive,100 Markham Park Drive,Little Rock,AR,34.75434156,-92.40400143
4112,KFC8220 Geyer Springs Road,8220 Geyer Springs Road,Little Rock,AR,34.6749908,-92.34409366
4113,KFC1690 N. Center Street,1690 N. Center Street,Lonoke,AR,34.80050748,-91.88974405
4114,KFC1509 E. Main Street,1509 E. Main Street,Magnolia,AR,33.26669924,-93.22231576
4115,KFC20704 Highway 365 North,20704 Highway 365 North,Maumelle,AR,34.88403854,-92.38426324
4116,KFC403 Highway 71 N,403 Highway 71 N,Mena,AR,34.58599092,-94.22811431
4117,KFC352 Highway 62 E Mountain Home,352 Highway 62 E Mountain Home,Mountain Home,AR,36.34251075,-92.38186704
4118,KFC105 Sylamore Ave,105 Sylamore Ave,Mountain View,AR,35.86557813,-92.10781886
4119,KFC320 S. Main Street,320 S. Main Street,Nashville,AR,33.94069468,-93.84726721
4120,KFC4400 Camp Robinson,4400 Camp Robinson,North Little Rock,AR,34.79502392,-92.27119061
4121,KFC1001 W. Keiser,1001 W. Keiser,Osceola,AR,35.69758552,-89.98346353
4122,KFC103 Airport Road,103 Airport Road,Ozark,AR,35.51249716,-93.82210525
4123,KFC2401 W. Kings Highway,2401 W. Kings Highway,Paragould,AR,36.05955343,-90.51750105
4124,KFC2707 West 28th,2707 West 28th,Pine Bluff,AR,34.20189271,-92.03085385
4125,KFC3002 Pines Mall Drive,3002 Pines Mall Drive,Pine Bluff,AR,34.20793319,-91.96986076
4126,KFC1052 Highway 62 West,1052 Highway 62 West,Pocahontas,AR,36.25477622,-90.97437405
4127,KFC507 S. Eighth Street,507 S. Eighth Street,Rogers,AR,36.32893699,-94.12568785
4128,KFC720 N. Arkansas Avenue,720 N. Arkansas Avenue,Russellville,AR,35.2850684,-93.13342178
4129,KFC2504 E. Race Street,2504 E. Race Street,Searcy,AR,35.25062239,-91.70717426
4130,KFC8350 Warden Road,8350 Warden Road,Sherwood,AR,34.83018921,-92.1827293
4131,KFC1115 U.S. Highway 412 W,1115 U.S. Highway 412 W,Siloam Springs,AR,36.17538241,-94.5527225
4132,KFC600 South Thompson Street,600 South Thompson Street,Springdale,AR,36.17988959,-94.13894521
4133,KFC4010 North State Line Road,4010 North State Line Road,Texarkana,AR,33.46197816,-94.04297178
4134,KFC504 Hwy 63,504 Hwy 63,Trumann,AR,35.67857352,-90.51555025
4135,KFC511 North Plaza Dr,511 North Plaza Dr,Van Buren,AR,35.46007002,-94.35539052
4136,KFC401 N.W. 4th Street,401 N.W. 4th Street,Walnut Ridge,AR,36.0725856,-90.95559467
4137,KFC789 N. Sebastian,789 N. Sebastian,West Helena,AR,34.55439061,-90.65550023
4138,KFC400 N. Missouri St,400 N. Missouri St,West Memphis,AR,35.15075754,-90.18489247
4139,KFC900 Martin Luther King Dr,900 Martin Luther King Dr,West Memphis,AR,35.15464918,-90.13727601
4140,KFC1913 N. Falls,1913 N. Falls,Wynne,AR,35.2480988,-90.78162728
4141,KFC3051 W Apache Trail,3051 W Apache Trail,Apache Junction,AZ,33.4149882,-111.5784855
4142,KFC1470 N 8th St,1470 N 8th St,Avondale,AZ,33.44902548,-112.3412053
4143,KFC650 South Highway 90,650 South Highway 90,Benson,AZ,31.96228541,-110.3457755
4144,KFC682 S. Watson Rd,682 S. Watson Rd,Buckeye,AZ,33.4407181,-112.5564857
4145,KFC2350 Miracle Mile,2350 Miracle Mile,Bullhead City,AZ,35.10083151,-114.5965584
4146,KFC618 E. Florence,618 E. Florence,Casa Grande,AZ,32.87963942,-111.7459344
4147,KFC2760 West Chandler Boulevard,2760 West Chandler Boulevard,Chandler,AZ,33.30606797,-111.8907439
4148,KFC1147 N Hwy 89,1147 N Hwy 89,Chino Valley,AZ,34.76128923,-112.4535107
4149,KFC1505 N. Arizona Boulevard,1505 N. Arizona Boulevard,Coolidge,AZ,32.99604881,-111.5229163
4150,KFC970 S. Main,970 S. Main,Cottonwood,AZ,34.72257664,-112.004549
4151,KFC2453 South Gilbert Road,2453 South Gilbert Road,Gilbert,AZ,33.30507751,-111.7895928
4152,KFC3626 W. Pinnacle Peak Rd,3626 W. Pinnacle Peak Rd,Glendale,AZ,33.69838427,-112.1399359
4153,KFC4338 W Glendale Ave,4338 W Glendale Ave,Glendale,AZ,33.5385462,-112.1529541
4154,KFC6708 W. Deer Valley Road,6708 W. Deer Valley Road,Glendale,AZ,33.68197931,-112.203843
4155,KFC16980 W. Yuma Road,16980 W. Yuma Road,Goodyear,AZ,33.43570494,-112.4234036
4156,KFC280 W. Continental Road,280 W. Continental Road,Green Valley,AZ,31.8519497,-110.9975325
4157,KFC3350 N. Stockton Hill,3350 N. Stockton Hill,Kingman,AZ,35.22088304,-114.0357344
4158,KFC195 North Lake Havasu Avenue,195 North Lake Havasu Avenue,Lake Havasu City,AZ,34.47963124,-114.3479987
4159,KFC5145 W. Baseline Road,5145 W. Baseline Road,Laveen,AZ,33.37738537,-112.1705163
4160,KFC13006 W Indian School Road,13006 W Indian School Road,Litchfield Park,AZ,33.49343837,-112.3397573
4161,KFC21566 N. John Wayne Parkway,21566 N. John Wayne Parkway,Maricopa,AZ,33.07480739,-112.0432429
4162,KFC10720 E Baseline Road,10720 E Baseline Road,Mesa,AZ,33.37909032,-111.6028926
4163,KFC1950 W Baseline Rd,1950 W Baseline Rd,Mesa,AZ,33.37868806,-111.8758994
4164,KFC2210 E Baseline Rd,2210 E Baseline Rd,Mesa,AZ,33.37913696,-111.7853314
4165,KFC2757 E Main St,2757 E Main St,Mesa,AZ,33.41531917,-111.7715269
4166,KFC420 North Alma School Rd,420 North Alma School Rd,Mesa,AZ,33.42330408,-111.856583
4167,KFC360 W. Mariposa Road,360 W. Mariposa Road,Nogales,AZ,31.36638892,-110.9370964
4168,KFC6765 W Peoria Ave,6765 W Peoria Ave,Peoria,AZ,33.58151639,-112.205648
4169,KFC7541 W Thunderbird Road,7541 W Thunderbird Road,Peoria,AZ,33.61013629,-112.2212382
4170,KFC9251 W Union Hills Dr,9251 W Union Hills Dr,Peoria,AZ,33.65252732,-112.2575515
4171,KFC1525 N 43rd Ave,1525 N 43rd Ave,Phoenix,AZ,33.46499883,-112.1516908
4172,KFC1749 W. Bethany Home Rd,1749 W. Bethany Home Rd,Phoenix,AZ,33.52393435,-112.0977173
4173,KFC1843 West Union Hills Dr,1843 West Union Hills Dr,Phoenix,AZ,33.65458327,-112.0990208
4174,KFC20 E Baseline Road,20 E Baseline Road,Phoenix,AZ,33.37787033,-112.0726017
4175,KFC2902 N 7th Ave,2902 N 7th Ave,Phoenix,AZ,33.48070548,-112.0831318
4176,KFC3550 W Thunderbird Rd,3550 W Thunderbird Rd,Phoenix,AZ,33.61095518,-112.1353609
4177,KFC3702 E Thomas Rd,3702 E Thomas Rd,Phoenix,AZ,33.48050454,-112.0015479
4178,KFC4050 East Bell Road,4050 East Bell Road,Phoenix,AZ,33.64081277,-111.9937071
4179,KFC7634 W Indian School Rd,7634 W Indian School Rd,Phoenix,AZ,33.49467896,-112.2245335
4180,KFC7860 E. Highway 69,7860 E. Highway 69,Prescott Valley,AZ,34.58564047,-112.3295082
4181,KFC547 Miller Valley Road,547 Miller Valley Road,Prescott,AZ,34.55045424,-112.4788939
4182,KFC57 W. Combs Road,57 W. Combs Road,Queen Creek,AZ,33.21987107,-111.5642979
4183,KFC1817 Thatcher Boulevard,1817 Thatcher Boulevard,Safford,AZ,32.83519084,-109.730842
4184,KFC8050 E Indian School Rd,8050 E Indian School Rd,Scottsdale,AZ,33.4949678,-111.9066546
4185,KFC180 N. White Mountain Road,180 N. White Mountain Road,Show Low,AZ,34.25155374,-110.0287249
4186,KFC1060 Fry Boulevard,1060 Fry Boulevard,Sierra Vista,AZ,31.55454863,-110.2877491
4187,KFC10661 Grand Avenue,10661 Grand Avenue,Sun City,AZ,33.60219144,-112.2889456
4188,KFC12621 W Bell Rd,12621 W Bell Rd,Surprise,AZ,33.63839264,-112.3328428
4189,KFC705 W Baseline Rd,705 W Baseline Rd,Tempe,AZ,33.37808953,-111.9503664
4190,KFCMaloney And Spur,Maloney And Spur,Tuba City,AZ,36.12347087,-111.2344531
4191,KFC2970 W Valencia Rd,2970 W Valencia Rd,Tucson,AZ,32.13388135,-111.0300246
4192,KFC2985 South Kino Parkway,2985 South Kino Parkway,Tucson,AZ,32.18391879,-110.9435467
4193,KFC7245 E. Golf Links Road,7245 E. Golf Links Road,Tucson,AZ,32.19210143,-110.8381849
4194,KFC7901 N. Oracle Hwy,7901 N. Oracle Hwy,Tucson,AZ,32.34967763,-110.975541
4195,KFC8270 N. Cortaro Road,8270 N. Cortaro Road,Tucson,AZ,32.35701157,-111.0918923
4196,KFC800 N. Grand Canyon Boulevard,800 N. Grand Canyon Boulevard,Williams,AZ,35.25743134,-112.1918256
4197,KFC11183 S. Frontage Drive,11183 S. Frontage Drive,Yuma,AZ,32.66900996,-114.4424672
4198,KFC1950 Fourth Avenue,1950 Fourth Avenue,Yuma,AZ,32.69245754,-114.6247478
4199,KFC848 East 32nd Street,848 East 32nd Street,Yuma,AZ,32.66950965,-114.6105859
4200,KFC14258 Highway 395,14258 Highway 395,Adelanto,CA,34.51042868,-117.3996858
4201,KFC2424 Encinal Avenue,2424 Encinal Avenue,Alameda,CA,37.76213975,-122.2437653
4202,KFC1425 South New,1425 South New,Alhambra,CA,34.07847465,-118.1083928
4203,KFC5005 E. Willows Road,5005 E. Willows Road,Alpine,CA,32.84075239,-116.7054164
4204,KFC100 S. Magnolia Ave,100 S. Magnolia Ave,Anaheim,CA,33.83211586,-117.9753596
4205,KFC131 W. Ball Rd,131 W. Ball Rd,Anaheim,CA,33.81820899,-117.9094636
4206,KFC2026 E. Lincoln Ave,2026 E. Lincoln Ave,Anaheim,CA,33.83964806,-117.8880057
4207,KFC299 S. Euclid St,299 S. Euclid St,Anaheim,CA,33.82952988,-117.9416215
4208,KFC8101 Watt Avenue,8101 Watt Avenue,Antelope,CA,38.71666451,-121.3925037
4209,KFC2751 Hillcrest Avenue,2751 Hillcrest Avenue,Antioch,CA,37.99316194,-121.7837995
4210,KFC18447 Highway 18,18447 Highway 18,Apple Valley,CA,34.53931111,-117.2616258
4211,KFC849 South Baldwin,849 South Baldwin,Arcadia,CA,34.13033403,-118.0547394
4212,KFC1395 Atwater Boulevard,1395 Atwater Boulevard,Atwater,CA,37.34670993,-120.6109346
4213,KFC2400 Grass Valley Highway,2400 Grass Valley Highway,Auburn,CA,38.93520277,-121.0930893
4214,KFC806 E Alosta Ave,806 E Alosta Ave,Azusa,CA,34.12943505,-117.8927578
4215,KFC72922 Baker Blvd,72922 Baker Blvd,Baker,CA,35.27704658,-116.0567726
4216,KFC11935 Rosedale Hwy,11935 Rosedale Hwy,Bakersfield,CA,35.38305886,-119.1368318
4217,KFC2674 Mount Vernon Avenue,2674 Mount Vernon Avenue,Bakersfield,CA,35.39534348,-118.9676457
4218,KFC3011 Brundage Ln,3011 Brundage Ln,Bakersfield,CA,35.35406049,-119.0379779
4219,KFC6320 White Ln,6320 White Ln,Bakersfield,CA,35.31830573,-119.0728072
4220,KFC14200 Ramona Blvd,14200 Ramona Blvd,Baldwin Park,CA,34.08536599,-117.9642913
4221,KFC1930 West Ramsey Street,1930 West Ramsey Street,Banning,CA,33.92532543,-116.8980126
4222,KFC5735 Florence,5735 Florence,Bell Gardens,CA,33.96785477,-118.1635886
4223,KFC41800 Washington St,41800 Washington St,Bermuda Dunes,CA,33.74486089,-116.3037101
4224,KFC1006 North Main Street,1006 North Main Street,Bishop,CA,37.37154481,-118.3952799
4225,KFC5080 Bonita Road,5080 Bonita Road,Bonita,CA,32.67004689,-117.022319
4226,KFC215 West Main,215 West Main,Brawley,CA,32.97872375,-115.5442555
4227,KFC6371 Lone Tree Way,6371 Lone Tree Way,Brentwood,CA,37.96145791,-121.7349305
4228,KFC7810 Brentwood Boulevard,7810 Brentwood Boulevard,Brentwood,CA,37.94346206,-121.6960712
4229,KFC6851 Beach Blvd,6851 Beach Blvd,Buena Park,CA,33.86091594,-117.9982737
4230,KFC3530 W. Victory Blvd,3530 W. Victory Blvd,Burbank,CA,34.18466302,-118.3500756
4231,KFC213 East Cole Road,213 East Cole Road,Calexico,CA,32.69412302,-115.4955432
4232,KFC2350 Las Posas Road,2350 Las Posas Road,Camarillo,CA,34.23532318,-119.0388721
4233,KFC3959 Cameron Park Drive,3959 Cameron Park Drive,Cameron Park,CA,38.6609277,-120.9693238
4234,KFC1805 Winchester Road,1805 Winchester Road,Campbell,CA,37.29107833,-121.9499844
4235,KFC20101 Sherman Way,20101 Sherman Way,Canoga Park,CA,34.2012072,-118.5717988
4236,KFC21930 Sherman Way,21930 Sherman Way,Canoga Park,CA,34.20093659,-118.605469
4237,KFC19307 Soledad Canyon Rd,19307 Soledad Canyon Rd,Canyon Country,CA,34.41583164,-118.4729125
4238,KFC2120 41st Avenue,2120 41st Avenue,Capitola,CA,36.97923751,-121.964801
4239,KFC745 Carlsbad Village Drive,745 Carlsbad Village Drive,Carlsbad,CA,33.16040398,-117.346251
4240,KFC18401 S. Avalon Blvd,18401 S. Avalon Blvd,Carson,CA,33.86259205,-118.2663563
4241,KFC545 East Sepulveda,545 East Sepulveda,Carson,CA,33.80835543,-118.265042
4242,KFC619 W Carson Street,619 W Carson Street,Carson,CA,33.8317174,-118.2866974
4243,KFC3625 Castro Valley Blvd,3625 Castro Valley Blvd,Castro Valley,CA,37.69489261,-122.072071
4244,KFC32120 Date Palm Drive,32120 Date Palm Drive,Cathedral City,CA,33.81389817,-116.4578843
4245,KFC2040 Whitmore Avenue,2040 Whitmore Avenue,Ceres,CA,37.59463984,-120.9576078
4246,KFC1980 E. 20th Street,1980 E. 20th Street,Chico,CA,39.72739226,-121.8029711
4247,KFC4135 Chino Hills Parkway,4135 Chino Hills Parkway,Chino Hills,CA,33.98250406,-117.7141442
4248,KFC12862 Central Avenue,12862 Central Avenue,Chino,CA,34.02000679,-117.6894626
4249,KFC1105 E Robertson Blvd,1105 E Robertson Blvd,Chowchilla,CA,37.12649042,-120.2475502
4250,KFC1327 Broadway,1327 Broadway,Chula Vista,CA,32.60256053,-117.0782184
4251,KFC1361 Medical Center Drive,1361 Medical Center Drive,Chula Vista,CA,32.61534855,-117.0268442
4252,KFC461 3rd Ave,461 3rd Ave,Chula Vista,CA,32.6358587,-117.0777089
4253,KFC7098 Auburn Boulevard,7098 Auburn Boulevard,Citrus Heights,CA,38.69410597,-121.2913824
4254,KFC1860 Ashlan Avenue,1860 Ashlan Avenue,Clovis,CA,36.79385477,-119.6810563
4255,KFC198 West Shaw Avenue,198 West Shaw Avenue,Clovis,CA,36.80837406,-119.7132995
4256,KFC49950 Harrison St,49950 Harrison St,Coachella,CA,33.68759997,-116.1815147
4257,KFC451 E. Elm Avenue,451 E. Elm Avenue,Coalinga,CA,36.14348387,-120.3568391
4258,KFC792 West Valley Blvd,792 West Valley Blvd,Colton,CA,34.06841758,-117.3353415
4259,KFC103 North Central Avenue,103 North Central Avenue,Compton,CA,33.896374,-118.252106
4260,KFC221 South Long Beach Blvd,221 South Long Beach Blvd,Compton,CA,33.89462344,-118.2079985
4261,KFC4660 Clayton Road,4660 Clayton Road,Concord,CA,37.96179442,-121.9847329
4262,KFC1151 W 6th St,1151 W 6th St,Corona,CA,33.8775129,-117.5852856
4263,KFC1300 E. Ontario Avenue,1300 E. Ontario Avenue,Corona,CA,33.8461277,-117.5385629
4264,KFC100 B Ave,100 B Ave,Coronado,CA,32.69764077,-117.1701988
4265,KFC465 E 17th St,465 E 17th St,Costa Mesa,CA,33.62940323,-117.9102356
4266,KFC1057 N. Grand Avenue,1057 N. Grand Avenue,Covina,CA,34.09895193,-117.8727393
4267,KFC9041 Valley View Street,9041 Valley View Street,Cypress,CA,33.83108358,-118.0285533
4268,KFC2815 Geneva Avenue,2815 Geneva Avenue,Daly City,CA,37.70684461,-122.4145039
4269,KFC287 Westmoor Ave,287 Westmoor Ave,Daly City,CA,37.68311365,-122.4882226
4270,KFC7199 Mission Street,7199 Mission Street,Daly City,CA,37.69373751,-122.4648299
4271,KFC1617 Research Park Dr,1617 Research Park Dr,Davis,CA,38.54027119,-121.7323443
4272,KFC812 Cecil Avenue,812 Cecil Avenue,Delano,CA,35.77584844,-119.2477834
4273,KFC13947 Palm Drive,13947 Palm Drive,Desert Hot Springs,CA,33.94722725,-116.5014029
4274,KFC542 N. Diamond Bar Blvd,542 N. Diamond Bar Blvd,Diamond Bar,CA,34.02974891,-117.8099692
4275,KFC333 Monte Vista Drive,333 Monte Vista Drive,Dinuba,CA,36.54502431,-119.4042364
4276,KFC7865 East Florence Avenue,7865 East Florence Avenue,Downey,CA,33.9547145,-118.1320593
4277,KFC1128 East Huntington Drive,1128 East Huntington Drive,Duarte,CA,34.13950571,-117.9806957
4278,KFC6797 Village Parkway,6797 Village Parkway,Dublin,CA,37.70647552,-121.9238415
4279,KFC2949 Jamacha Road,2949 Jamacha Road,El Cajon,CA,32.7397498,-116.940453
4280,KFC555 N 2nd St,555 N 2nd St,El Cajon,CA,32.80114601,-116.9356371
4281,KFC724 Fletcher Pky,724 Fletcher Pky,El Cajon,CA,32.80788803,-116.9716651
4282,KFC1775 South Imperial,1775 South Imperial,El Centro,CA,32.777327,-115.5694606
4283,KFC3814 North Peck Road,3814 North Peck Road,El Monte,CA,34.07449876,-118.0225099
4284,KFC2330 Longport Court,2330 Longport Court,Elk Grove,CA,38.42538165,-121.4816503
4285,KFC8579 Elk Grove Boulevard,8579 Elk Grove Boulevard,Elk Grove,CA,38.4091999,-121.3855753
4286,KFC4501 San Pablo Avenue,4501 San Pablo Avenue,Emeryville,CA,37.83427784,-122.2810717
4287,KFC2429 East Valley Parkway,2429 East Valley Parkway,Escondido,CA,33.14187084,-117.0420689
4288,KFC639 N. Broadway,639 N. Broadway,Escondido,CA,33.12781483,-117.0843227
4289,KFC2245 Broadway,2245 Broadway,Eureka,CA,40.7873006,-124.1808097
4290,KFC8810 Madison Avenue,8810 Madison Avenue,Fair Oaks,CA,38.66389608,-121.229371
4291,KFC2263 N. Texas Street,2263 N. Texas Street,Fairfield,CA,38.27013632,-122.0342873
4292,KFC1077 S Mission Rd,1077 S Mission Rd,Fallbrook,CA,33.37354372,-117.2537778
4293,KFC2535 Iron Point Road,2535 Iron Point Road,Folsom,CA,38.64701175,-121.1175619
4294,KFC14570 Baseline Avenue,14570 Baseline Avenue,Fontana,CA,34.12162395,-117.4865997
4295,KFC9758 Sierra Ave,9758 Sierra Ave,Fontana,CA,34.07666597,-117.4358342
4296,KFC17239 Brookhurst Street,17239 Brookhurst Street,Fountain Valley,CA,33.7129778,-117.9546436
4297,KFC190 Francisco Lane,190 Francisco Lane,Fremont,CA,37.49103794,-121.9277161
4298,KFC37123 Fremont Boulevard,37123 Fremont Boulevard,Fremont,CA,37.55981299,-122.0103037
4299,KFC4961 Mowry Avenue,4961 Mowry Avenue,Fremont,CA,37.53721335,-121.9979546
4300,KFC1110 C Street,1110 C Street,Fresno,CA,36.72947636,-119.7992853
4301,KFC1904 West Olive,1904 West Olive,Fresno,CA,36.75752695,-119.8338974
4302,KFC2031 North Blackstone Avenue,2031 North Blackstone Avenue,Fresno,CA,36.76942484,-119.7907342
4303,KFC3218 East Jensen,3218 East Jensen,Fresno,CA,36.70658266,-119.7700828
4304,KFC3846 North West Avenue,3846 North West Avenue,Fresno,CA,36.78709412,-119.8263527
4305,KFC4175 West Shaw,4175 West Shaw,Fresno,CA,36.80808313,-119.8667687
4306,KFC4909 East McKinley Avenue,4909 East McKinley Avenue,Fresno,CA,36.76531959,-119.7311844
4307,KFC4948 East Kings Canyon,4948 East Kings Canyon,Fresno,CA,36.73579877,-119.7309452
4308,KFC5775 North 1st Street,5775 North 1st Street,Fresno,CA,36.82228159,-119.7724141
4309,KFC7152 North Blackstone Avenue,7152 North Blackstone Avenue,Fresno,CA,36.8401018,-119.790187
4310,KFC150 W. Orangethorpe Ave,150 W. Orangethorpe Ave,Fullerton,CA,33.8593695,-117.9263548
4311,KFC1889 West Malvern Ave,1889 West Malvern Ave,Fullerton,CA,33.87795642,-117.9614116
4312,KFC10350 Twin Cities Road,10350 Twin Cities Road,Galt,CA,38.29097438,-121.3099722
4313,KFC12042 Valley View Blvd,12042 Valley View Blvd,Garden Grove,CA,33.78776691,-118.028351
4314,KFC12861 Harbor Blvd,12861 Harbor Blvd,Garden Grove,CA,33.77601753,-117.9172866
4315,KFC8971 Westminster Ave,8971 Westminster Ave,Garden Grove,CA,33.75951874,-117.9729709
4316,KFC1078 Rosecrans Avenue,1078 Rosecrans Avenue,Gardena,CA,33.90181018,-118.2932975
4317,KFC5884 Monterey Rd,5884 Monterey Rd,Gilroy,CA,36.98375349,-121.5570386
4318,KFC8080 Wren Ave,8080 Wren Ave,Gilroy,CA,37.01478237,-121.5865972
4319,KFC200 N Verdugo Rd,200 N Verdugo Rd,Glendale,CA,34.14811921,-118.2350858
4320,KFC5697 Calle Real,5697 Calle Real,Goleta,CA,34.44112257,-119.8232404
4321,KFC1983 Nevada City Hwy,1983 Nevada City Hwy,Grass Valley,CA,39.23712161,-121.0371266
4322,KFC412 N. Redington,412 N. Redington,Hanford,CA,36.32885879,-119.6494232
4323,KFC11523 Hawthorne Blvd,11523 Hawthorne Blvd,Hawthorne,CA,33.92941863,-118.3528809
4324,KFC1299 West Tennyson Road,1299 West Tennyson Road,Hayward,CA,37.63148294,-122.0788316
4325,KFC31077 Mission Boulevard,31077 Mission Boulevard,Hayward,CA,37.62030177,-122.0363428
4326,KFC2890 West Florida Avenue,2890 West Florida Avenue,Hemet,CA,33.74744654,-117.0017965
4327,KFC3440 East Florida Avenue,3440 East Florida Avenue,Hemet,CA,33.74781807,-116.9352121
4328,KFC16800 Main Street,16800 Main Street,Hesperia,CA,34.42088241,-117.2964118
4329,KFC7347 Boulder Avenue,7347 Boulder Avenue,Highland,CA,34.11982692,-117.1949976
4330,KFC191 McCray Street,191 McCray Street,Hollister,CA,36.85489609,-121.3988587
4331,KFC19091 Brookhurst Street,19091 Brookhurst Street,Huntington Beach,CA,33.68558389,-117.9542161
4332,KFC6100 West Warner Avenue,6100 West Warner Avenue,Huntington Beach,CA,33.71532717,-118.0226817
4333,KFC8142 Talbert Ave,8142 Talbert Ave,Huntington Beach,CA,33.70110185,-117.9878308
4334,KFC3100 E Gage Ave,3100 E Gage Ave,Huntington Park,CA,33.98072189,-118.2126529
4335,KFC1056 13th St,1056 13th St,Imperial Beach,CA,32.57731165,-117.1058244
4336,KFC42750 A Jackson Street,42750 A Jackson Street,Indio,CA,33.74051611,-116.2164324
4337,KFC81769 US Highway 111,81769 US Highway 111,Indio,CA,33.71148876,-116.2378404
4338,KFC2941 West Imperial Hwy,2941 West Imperial Hwy,Inglewood,CA,33.93105777,-118.3258734
4339,KFC15463 Culver Drive,15463 Culver Drive,Irvine,CA,33.69505877,-117.8001865
4340,KFC531 Highway 49,531 Highway 49,Jackson,CA,38.34355534,-120.7684901
4341,KFC157 South Madera,157 South Madera,Kerman,CA,36.7336453,-120.0603239
4342,KFC1300 Broadway Circle,1300 Broadway Circle,King City,CA,36.20355744,-121.1374775
4343,KFC450 North Harbor,450 North Harbor,La Habra,CA,33.93559175,-117.9329263
4344,KFC13970 Imperial Highway,13970 Imperial Highway,La Mirada,CA,33.91695286,-118.034372
4345,KFC939 North Hacienda Blvd,939 North Hacienda Blvd,La Puente,CA,34.036876,-117.9500815
4346,KFC30071 Alicia Parkway,30071 Alicia Parkway,Laguna Niguel,CA,33.52607807,-117.7175942
4347,KFC31257 Riverside Drive,31257 Riverside Drive,Lake Elsinore,CA,33.68283308,-117.3682832
4348,KFC321 Summerhill Drive,321 Summerhill Drive,Lake Elsinore,CA,33.66411809,-117.2986432
4349,KFC24541 Trabuco Road,24541 Trabuco Road,Lake Forest,CA,33.65463884,-117.7016165
4350,KFC1135 Lakeport Boulevard,1135 Lakeport Boulevard,Lakeport,CA,39.03179064,-122.9250675
4351,KFC12061 Woodside Ave,12061 Woodside Ave,Lakeside,CA,32.85575859,-116.9323938
4352,KFC4917 Bellflower Blvd,4917 Bellflower Blvd,Lakewood,CA,33.8477956,-118.1252098
4353,KFC1827 E. Ave. J,1827 E. Ave. J,Lancaster,CA,34.68974319,-118.0963338
4354,"KFC43559 10th Street, West","43559 10th Street, West",Lancaster,CA,34.67439187,-118.1480125
4355,KFC866 W Avenue I,866 W Avenue I,Lancaster,CA,34.70384951,-118.1475404
4356,KFC150 E. Louise Ave,150 E. Louise Ave,Lathrop,CA,37.8116575,-121.2929837
4357,KFC7012 Broadway,7012 Broadway,Lemon Grove,CA,32.74262307,-117.0464648
4358,KFC1019 North Lemoore Avenue,1019 North Lemoore Avenue,Lemoore,CA,36.31186247,-119.7809488
4359,KFC35 Lincoln Blvd,35 Lincoln Blvd,Lincoln,CA,38.87165196,-121.2983648
4360,KFC6061 Northfront Road,6061 Northfront Road,Livermore,CA,37.71174364,-121.7229103
4361,KFC18780 N Highway 88,18780 N Highway 88,Lockeford,CA,38.15442946,-121.1555231
4362,KFC2712 W. Kettleman Lane,2712 W. Kettleman Lane,Lodi,CA,38.11528717,-121.3091994
4363,KFC24866 Redlands Blvd,24866 Redlands Blvd,Loma Linda,CA,34.06319114,-117.2620494
4364,KFC26715 Western Ave,26715 Western Ave,Lomita,CA,33.77856917,-118.3095794
4365,KFC1401 North H Street,1401 North H Street,Lompoc,CA,34.66124451,-120.4578226
4366,KFC1601 East Seventh Street,1601 East Seventh Street,Long Beach,CA,33.77585788,-118.1718244
4367,KFC1601 West Willow Street,1601 West Willow Street,Long Beach,CA,33.80448736,-118.214658
4368,KFC209 E. Pacific Coast Highway,209 E. Pacific Coast Highway,Long Beach,CA,33.78997138,-118.1905828
4369,KFC2970 Bellflower Boulevard,2970 Bellflower Boulevard,Long Beach,CA,33.80881709,-118.1251282
4370,KFC4001 East Anaheim Street,4001 East Anaheim Street,Long Beach,CA,33.7826735,-118.1453872
4371,KFC4528 Atlantic Avenue,4528 Atlantic Avenue,Long Beach,CA,33.84087687,-118.1840341
4372,KFC10501 W Pico Blvd,10501 W Pico Blvd,Los Angeles,CA,34.04521858,-118.4191167
4373,KFC1148 W Manchester Ave,1148 W Manchester Ave,Los Angeles,CA,33.95992687,-118.2957108
4374,KFC11864 Wilmington Ave,11864 Wilmington Ave,Los Angeles,CA,33.92590584,-118.2389446
4375,KFC11900 Wilshire Blvd,11900 Wilshire Blvd,Los Angeles,CA,34.04651984,-118.4643954
4376,KFC1244 S. La Brea Ave,1244 S. La Brea Ave,Los Angeles,CA,34.05216547,-118.3439522
4377,KFC126 Vermont Avenue,126 Vermont Avenue,Los Angeles,CA,34.07219796,-118.2915949
4378,KFC1425 West Martin Luther King Boulevard,1425 West Martin Luther King Boulevard,Los Angeles,CA,34.01094914,-118.3008262
4379,KFC1550 S. La Cienega Blvd,1550 S. La Cienega Blvd,Los Angeles,CA,34.04920111,-118.3760412
4380,KFC1601 Crenshaw Blvd,1601 Crenshaw Blvd,Los Angeles,CA,34.04439138,-118.3287046
4381,KFC2801 North Broadway,2801 North Broadway,Los Angeles,CA,34.07395504,-118.2130368
4382,KFC2801 West Olympic Boulevard,2801 West Olympic Boulevard,Los Angeles,CA,34.05274333,-118.2949766
4383,KFC2809 South Figueroa,2809 South Figueroa,Los Angeles,CA,34.025712,-118.2777175
4384,KFC320 North Soto,320 North Soto,Los Angeles,CA,34.04727618,-118.2074033
4385,KFC340 North Western Avenue,340 North Western Avenue,Los Angeles,CA,34.07736669,-118.3091036
4386,KFC380 World Way,380 World Way,Los Angeles,CA,33.94469216,-118.4082469
4387,KFC4270 South Central Ave,4270 South Central Ave,Los Angeles,CA,34.00624086,-118.2564157
4388,KFC5130 Obama Blvd,5130 Obama Blvd,Los Angeles,CA,34.0214332,-118.3570788
4389,KFC5220 W Centinela Ave,5220 W Centinela Ave,Los Angeles,CA,33.97722914,-118.3713451
4390,KFC5720 S. Vermont Avenue,5720 S. Vermont Avenue,Los Angeles,CA,33.98991239,-118.2914083
4391,KFC5811 Whittier Blvd,5811 Whittier Blvd,Los Angeles,CA,34.0180843,-118.1458388
4392,KFC5925 West Third Street,5925 West Third Street,Los Angeles,CA,34.06965921,-118.3493395
4393,KFC624 South Lorena,624 South Lorena,Los Angeles,CA,34.03034838,-118.1992099
4394,KFC8500 Lincoln Blvd,8500 Lincoln Blvd,Los Angeles,CA,33.96024636,-118.4194872
4395,KFC8515 S. Central Ave,8515 S. Central Ave,Los Angeles,CA,33.96026669,-118.2569284
4396,KFC748 West Pacheco Boulevard,748 West Pacheco Boulevard,Los Banos,CA,37.05696571,-120.8618979
4397,KFC16150 Los Gatos Boulevard,16150 Los Gatos Boulevard,Los Gatos,CA,37.23409372,-121.9636437
4398,KFC9750 Highway 53,9750 Highway 53,Lower Lake,CA,38.911875,-122.6121059
4399,KFC4339 E. Imperial Highway,4339 E. Imperial Highway,Lynwood,CA,33.93087219,-118.1844669
4400,KFC1144 Country Club Drive,1144 Country Club Drive,Madera,CA,36.97659608,-120.0743279
4401,KFC1211 E. Yosemite Avenue,1211 E. Yosemite Avenue,Manteca,CA,37.79758391,-121.1966124
4402,KFC3134 Del Monte Ave,3134 Del Monte Ave,Marina,CA,36.68598824,-121.8009842
4403,KFC4025 Slauson Avenue,4025 Slauson Avenue,Maywood,CA,33.9880595,-118.193586
4404,KFC180 West Olive Avenue,180 West Olive Avenue,Merced,CA,37.3187351,-120.4729418
4405,KFC2016 E. Childs Avenue,2016 E. Childs Avenue,Merced,CA,37.28776447,-120.4523294
4406,KFC950 El Camino Real,950 El Camino Real,Millbrae,CA,37.60597458,-122.3966014
4407,KFC73 South Main Street,73 South Main Street,Milpitas,CA,37.42970617,-121.9067104
4408,KFC10865 Sepulveda Blvd,10865 Sepulveda Blvd,Mission Hills,CA,34.26802961,-118.4673878
4409,KFC1420 Kansas Avenue,1420 Kansas Avenue,Modesto,CA,37.64593412,-121.0296141
4410,KFC1467 Mitchell Rd,1467 Mitchell Rd,Modesto,CA,37.60989778,-120.9389033
4411,KFC3250 Dale Road,3250 Dale Road,Modesto,CA,37.68669983,-121.0497027
4412,KFC3400 McHenry Avenue,3400 McHenry Avenue,Modesto,CA,37.68670849,-120.9940835
4413,KFC950 Oakdale Road,950 Oakdale Road,Modesto,CA,37.6553406,-120.9573126
4414,KFC320 West Beverly Road,320 West Beverly Road,Montebello,CA,34.01629695,-118.1014402
4415,KFC12280 Heacock Street,12280 Heacock Street,Moreno Valley,CA,33.94198388,-117.2436809
4416,KFC16040 Perris Boulevard,16040 Perris Boulevard,Moreno Valley,CA,33.8882823,-117.2251993
4417,KFC17050 Laurel Road,17050 Laurel Road,Morgan Hill,CA,37.13123792,-121.6368763
4418,KFC2609 Charleston Road,2609 Charleston Road,Mountain View,CA,37.42173736,-122.1006855
4419,KFC696 West El Camino Real,696 West El Camino Real,Mountain View,CA,37.38528183,-122.0826849
4420,KFC40702 California Oaks Road,40702 California Oaks Road,Murrieta,CA,33.57023003,-117.2046967
4421,KFC295 Soscol Ave,295 Soscol Ave,Napa,CA,38.28463963,-122.2747524
4422,KFC3246 Jefferson St,3246 Jefferson St,Napa,CA,38.3205742,-122.2991611
4423,KFC840 Highland Ave,840 Highland Ave,National City,CA,32.67750926,-117.0985969
4424,KFC1330 Hamner Avenue,1330 Hamner Avenue,Norco,CA,33.90011769,-117.5627474
4425,KFC4801 Watt Ave,4801 Watt Ave,North Highlands,CA,38.65281598,-121.3831446
4426,KFC12044 Roscoe Boulevard,12044 Roscoe Boulevard,North Hollywood,CA,34.2215674,-118.3956879
4427,KFC6502 Laurel Canyon Blvd,6502 Laurel Canyon Blvd,North Hollywood,CA,34.1886755,-118.3964035
4428,KFC8644 Balboa Blvd,8644 Balboa Blvd,Northridge,CA,34.22784821,-118.5024923
4429,KFC10905 Imperial Highway,10905 Imperial Highway,Norwalk,CA,33.91724244,-118.1013582
4430,KFC10937 Alondra Blvd,10937 Alondra Blvd,Norwalk,CA,33.88765243,-118.1012828
4431,KFC12959 Rosecrans Avenue,12959 Rosecrans Avenue,Norwalk,CA,33.90247895,-118.055869
4432,KFC1560 East F Street,1560 East F Street,Oakdale,CA,37.77326117,-120.8298718
4433,KFC3400 Foothill Boulevard,3400 Foothill Boulevard,Oakland,CA,37.78284854,-122.2198922
4434,KFC3734 Macarthur Boulevard,3734 Macarthur Boulevard,Oakland,CA,37.79196983,-122.1988932
4435,KFC6035 Telegraph Road,6035 Telegraph Road,Oakland,CA,37.84691548,-122.2611157
4436,KFC7272 East 14th Street,7272 East 14th Street,Oakland,CA,37.7594635,-122.1873361
4437,KFC950 Market Street,950 Market Street,Oakland,CA,37.80362059,-122.2825346
4438,KFC9825 East 14th Street,9825 East 14th Street,Oakland,CA,37.74385961,-122.1702781
4439,KFC2007 Mission Ave,2007 Mission Ave,Oceanside,CA,33.2041225,-117.3643033
4440,KFC3747 Mission Avenue,3747 Mission Avenue,Oceanside,CA,33.22421269,-117.3325745
4441,KFC4100 Oceanside Blvd,4100 Oceanside Blvd,Oceanside,CA,33.20672935,-117.2872868
4442,KFC1108 W. Mission Blvd,1108 W. Mission Blvd,Ontario,CA,34.05673445,-117.6700193
4443,KFC2454 South Archibald Ave,2454 South Archibald Ave,Ontario,CA,34.02908486,-117.5933996
4444,KFC4371 Ontario Mills Parkway,4371 Ontario Mills Parkway,Ontario,CA,34.06913396,-117.5567049
4445,KFC2469 N. Tustin Street,2469 N. Tustin Street,Orange,CA,33.82937687,-117.8360242
4446,KFC708 N. Tustin St,708 N. Tustin St,Orange,CA,33.79894387,-117.8358017
4447,KFC660 Oro Dam Blvd. E,660 Oro Dam Blvd. E,Oroville,CA,39.49927652,-121.5666453
4448,KFC191 W. Gonzales Road,191 W. Gonzales Road,Oxnard,CA,34.2192506,-119.1781497
4449,KFC3351 Saviers Road,3351 Saviers Road,Oxnard,CA,34.16946239,-119.1777753
4450,KFC13720 Van Nuys Blvd,13720 Van Nuys Blvd,Pacoima,CA,34.25885433,-118.4318063
4451,KFC725 S Palm Canyon Dr,725 S Palm Canyon Dr,Palm Springs,CA,33.81161976,-116.5446941
4452,KFC2351 E. Avenue S,2351 E. Avenue S,Palmdale,CA,34.55819759,-118.0866798
4453,KFC2050 Fair Oaks Boulevard,2050 Fair Oaks Boulevard,Pasadena,CA,34.18109846,-118.1507065
4454,KFC2896 E. Colorado Blvd,2896 E. Colorado Blvd,Pasadena,CA,34.1460473,-118.0905586
4455,KFC820 North Lake Avenue,820 North Lake Avenue,Pasadena,CA,34.16001968,-118.1324012
4456,KFC2405 Riverside Drive,2405 Riverside Drive,Paso Robles,CA,35.64001752,-120.6882815
4457,KFC15014 Rogers Road,15014 Rogers Road,Patterson,CA,37.46637009,-121.175766
4458,KFC701 East Washington Street,701 East Washington Street,Petaluma,CA,38.24148161,-122.6331532
4459,KFC9619 Sheep Creek Road,9619 Sheep Creek Road,Phelan,CA,34.42492197,-117.5724161
4460,KFC1544 Fitzgerald Dr,1544 Fitzgerald Dr,Pinole,CA,37.99143249,-122.3019335
4461,KFC2155 Railroad Avenue,2155 Railroad Avenue,Pittsburg,CA,38.01466921,-121.8901811
4462,KFC1404 Kraemer Boulevard,1404 Kraemer Boulevard,Placentia,CA,33.8871877,-117.8631754
4463,KFC73 Main Street,73 Main Street,Placerville,CA,38.72776249,-120.8077757
4464,KFC635 Contra Costa Boulevard,635 Contra Costa Boulevard,Pleasant Hill,CA,37.9738802,-122.0640316
4465,KFC1803 Santa Rita Road,1803 Santa Rita Road,Pleasanton,CA,37.67773614,-121.8744995
4466,KFC2294 N. Garey Avenue,2294 N. Garey Avenue,Pomona,CA,34.08928895,-117.7495485
4467,KFC375 E. Mission Blvd,375 E. Mission Blvd,Pomona,CA,34.05528268,-117.7470053
4468,KFC351 E Channel Islands Blvd,351 E Channel Islands Blvd,Port Hueneme,CA,34.1764989,-119.1951765
4469,KFC642 West Olive,642 West Olive,Porterville,CA,36.06609393,-119.0314195
4470,KFC12660 Poway Rd,12660 Poway Rd,Poway,CA,32.95404488,-117.0574473
4471,KFC1025 Main Street,1025 Main Street,Ramona,CA,33.04176499,-116.8692593
4472,KFC10399 Folsom Blvd,10399 Folsom Blvd,Rancho Cordova,CA,38.5887565,-121.3039076
4473,KFC11425 Baseline Road,11425 Baseline Road,Rancho Cucamonga,CA,34.12066999,-117.5554281
4474,KFC8140 Vineyard Ave,8140 Vineyard Ave,Rancho Cucamonga,CA,34.10563429,-117.6112271
4475,KFC29840 Santa Margarita,29840 Santa Margarita,Rancho Santa Margarita,CA,33.63747156,-117.60905
4476,KFC135 Lake Blvd. East,135 Lake Blvd. East,Redding,CA,40.610471,-122.372481
4477,KFC645 E. Redlands Boulevard,645 E. Redlands Boulevard,Redlands,CA,34.05418684,-117.174526
4478,KFC204 El Camino Real,204 El Camino Real,Redwood City,CA,37.49240106,-122.2429545
4479,KFC659 Woodside Road,659 Woodside Road,Redwood City,CA,37.46839214,-122.2236738
4480,KFC864 West Manning,864 West Manning,Reedley,CA,36.6043154,-119.4569753
4481,KFC6916 Reseda Boulevard,6916 Reseda Boulevard,Reseda,CA,34.19602004,-118.5360122
4482,KFC223 E Foothill Blvd,223 E Foothill Blvd,Rialto,CA,34.10664001,-117.3666076
4483,KFC12319 San Pablo Avenue,12319 San Pablo Avenue,Richmond,CA,37.93598463,-122.3255302
4484,KFC15555 San Pablo Ave,15555 San Pablo Ave,Richmond,CA,37.99016193,-122.336144
4485,KFC6328 Rio Linda Blvd,6328 Rio Linda Blvd,Rio Linda,CA,38.68227196,-121.4567493
4486,KFC1005 Highway 12,1005 Highway 12,Rio Vista,CA,38.16212551,-121.6989988
4487,KFC2200 Patterson Road,2200 Patterson Road,Riverbank,CA,37.73253598,-120.9577349
4488,KFC10061 Magnolia Ave,10061 Magnolia Ave,Riverside,CA,33.91478699,-117.4566863
4489,KFC5225 Canyon Crest Dr,5225 Canyon Crest Dr,Riverside,CA,33.95557142,-117.3292573
4490,KFC6221 Van Buren Blvd,6221 Van Buren Blvd,Riverside,CA,33.94450929,-117.4537383
4491,KFC7970 Limonite Ave,7970 Limonite Ave,Riverside,CA,33.97812804,-117.4586095
4492,KFC4855 Granite Drive,4855 Granite Drive,Rocklin,CA,38.78941425,-121.22454
4493,KFC6710 Five-Star Blvd,6710 Five-Star Blvd,Rocklin,CA,38.78049465,-121.2641867
4494,KFC6700 Commerce Boulevard,6700 Commerce Boulevard,Rohnert Park,CA,38.34338733,-122.7120722
4495,KFC1089 Sunrise Avenue,1089 Sunrise Avenue,Roseville,CA,38.72816297,-121.2719799
4496,KFC5130 Foothills Blvd,5130 Foothills Blvd,Roseville,CA,38.76185056,-121.310736
4497,KFC17901 Colima Road,17901 Colima Road,Rowland Heights,CA,33.9899456,-117.9133784
4498,KFC1501 Meadowview Road,1501 Meadowview Road,Sacramento,CA,38.48139594,-121.5012781
4499,KFC1601 Del Paso Boulevard,1601 Del Paso Boulevard,Sacramento,CA,38.60725745,-121.4569894
4500,KFC2128 Sutterville Road,2128 Sutterville Road,Sacramento,CA,38.53862875,-121.4896748
4501,KFC2312 Arden Way,2312 Arden Way,Sacramento,CA,38.59601556,-121.4097121
4502,KFC2920 Del Paso Road,2920 Del Paso Road,Sacramento,CA,38.65514674,-121.5270755
4503,KFC3030 Capitol Avenue,3030 Capitol Avenue,Sacramento,CA,38.56952933,-121.4671192
4504,KFC3551 Bradshaw Rd,3551 Bradshaw Rd,Sacramento,CA,38.55855089,-121.3360462
4505,KFC3580 Northgate Boulevard,3580 Northgate Boulevard,Sacramento,CA,38.63304814,-121.4754316
4506,KFC3820 Florin Road,3820 Florin Road,Sacramento,CA,38.4959382,-121.4612229
4507,KFC4219 Marconi Ave,4219 Marconi Ave,Sacramento,CA,38.61770795,-121.3657648
4508,KFC5835 Madison Avenue,5835 Madison Avenue,Sacramento,CA,38.66081179,-121.3282847
4509,KFC6099 Stockton Boulevard,6099 Stockton Boulevard,Sacramento,CA,38.51606736,-121.438352
4510,KFC7821 Alta Valley Drive,7821 Alta Valley Drive,Sacramento,CA,38.47310062,-121.425424
4511,KFC8335 Elk Grove Florin Road,8335 Elk Grove Florin Road,Sacramento,CA,38.45552884,-121.3715679
4512,KFC1209 South Main Street,1209 South Main Street,Salinas,CA,36.65772318,-121.6593528
4513,KFC2040 North Main Street,2040 North Main Street,Salinas,CA,36.72296885,-121.6562187
4514,KFC700 East Alisal Street,700 East Alisal Street,Salinas,CA,36.67278206,-121.6322835
4515,KFC2084 S. Marina Drive,2084 S. Marina Drive,Salton City,CA,33.2785525,-115.9653586
4516,KFC2007 E Highland Ave,2007 E Highland Ave,San Bernardino,CA,34.13574755,-117.2433148
4517,KFC4694 University Parkway,4694 University Parkway,San Bernardino,CA,34.17109383,-117.3338385
4518,KFC808 W Highland Ave,808 W Highland Ave,San Bernardino,CA,34.13611344,-117.3013217
4519,KFC12305 Alemania Road,12305 Alemania Road,San Diego,CA,32.93743752,-117.1124968
4520,KFC155 Marketplace Avenue,155 Marketplace Avenue,San Diego,CA,32.70361118,-117.0995557
4521,KFC2260 Callagan Hwy,2260 Callagan Hwy,San Diego,CA,32.69070963,-117.1267314
4522,KFC2829 University Ave,2829 University Ave,San Diego,CA,32.74826505,-117.1328983
4523,KFC4140 Convoy Street,4140 Convoy Street,San Diego,CA,32.81752121,-117.1550157
4524,KFC4290 Clairemont Mesa Blvd,4290 Clairemont Mesa Blvd,San Diego,CA,32.83286382,-117.2011072
4525,KFC4380 Palm Avenue,4380 Palm Avenue,San Diego,CA,32.58385273,-117.0386521
4526,KFC4545 El Cajon Blvd,4545 El Cajon Blvd,San Diego,CA,32.75529707,-117.0970888
4527,KFC6605 Mission Gorge Rd,6605 Mission Gorge Rd,San Diego,CA,32.79337612,-117.0972367
4528,KFC6745 Mira Mesa Blvd,6745 Mira Mesa Blvd,San Diego,CA,32.90742282,-117.1714529
4529,KFC7049 Eastman Street,7049 Eastman Street,San Diego,CA,32.78948781,-117.1686012
4530,KFC7180 Miramar Rd,7180 Miramar Rd,San Diego,CA,32.88103489,-117.1581771
4531,KFC723 West Arrow Highway,723 West Arrow Highway,San Dimas,CA,34.10676479,-117.8187615
4532,KFC1327 San Fernando Road,1327 San Fernando Road,San Fernando,CA,34.28588981,-118.4446502
4533,KFC1150 Taraval Street,1150 Taraval Street,San Francisco,CA,37.74299623,-122.4787434
4534,KFC200 Duboce Avenue,200 Duboce Avenue,San Francisco,CA,37.76980476,-122.4248749
4535,KFC4150 Geary Boulevard,4150 Geary Boulevard,San Francisco,CA,37.78127351,-122.4642771
4536,KFC4285 Mission St,4285 Mission St,San Francisco,CA,37.72886949,-122.4310756
4537,KFC691 Eddy Street,691 Eddy Street,San Francisco,CA,37.78310072,-122.4189903
4538,KFC518 East Las Tunas Drive,518 East Las Tunas Drive,San Gabriel,CA,34.10329554,-118.0940118
4539,KFC1395 Stanwood Avenue,1395 Stanwood Avenue,San Jose,CA,37.24675076,-121.8898583
4540,KFC2342 Story Road,2342 Story Road,San Jose,CA,37.34744393,-121.8317267
4541,KFC2415 South King Road,2415 South King Road,San Jose,CA,37.32179102,-121.8255243
4542,KFC250 North Bascom Avenue,250 North Bascom Avenue,San Jose,CA,37.32741185,-121.931922
4543,KFC2672 Cropley Avenue,2672 Cropley Avenue,San Jose,CA,37.40376966,-121.8809339
4544,KFC3098 McKee Road,3098 McKee Road,San Jose,CA,37.37467959,-121.8354184
4545,KFC3144 South Bascom Avenue,3144 South Bascom Avenue,San Jose,CA,37.26654944,-121.9404978
4546,KFC3288 South White Road,3288 South White Road,San Jose,CA,37.31467745,-121.7918921
4547,KFC4162 Monterey Highway,4162 Monterey Highway,San Jose,CA,37.27744852,-121.8344671
4548,KFC552 East Santa Clara Street,552 East Santa Clara Street,San Jose,CA,37.34175603,-121.8787204
4549,KFC6171 Santa Teresa Boulevard,6171 Santa Teresa Boulevard,San Jose,CA,37.23684825,-121.8047465
4550,KFC626 Blossom Hill Road,626 Blossom Hill Road,San Jose,CA,37.25047548,-121.8439927
4551,KFC983 Meridian Avenue,983 Meridian Avenue,San Jose,CA,37.30816566,-121.9137728
4552,KFC32032 Camino Capistrano,32032 Camino Capistrano,San Juan Capistrano,CA,33.49734859,-117.6624313
4553,KFC15179 Hesperian Boulevard,15179 Hesperian Boulevard,San Leandro,CA,37.69983669,-122.130177
4554,KFC2187 Merced Street,2187 Merced Street,San Leandro,CA,37.70911549,-122.1713547
4555,KFC17630 Hesperian Blvd,17630 Hesperian Blvd,San Lorenzo,CA,37.67383847,-122.1230557
4556,KFC201 S. Rancho Santa Fe Road,201 S. Rancho Santa Fe Road,San Marcos,CA,33.14550797,-117.2004957
4557,KFC771 Center Drive,771 Center Drive,San Marcos,CA,33.13458285,-117.1213539
4558,KFC14400 San Pablo Avenue,14400 San Pablo Avenue,San Pablo,CA,37.96566124,-122.3446341
4559,KFC415 S Gaffey Street,415 S Gaffey Street,San Pedro,CA,33.74010071,-118.2924813
4560,KFC555 Second Street,555 Second Street,San Rafael,CA,37.97028285,-122.5199552
4561,KFC2020 San Ramon Valley Boulevard,2020 San Ramon Valley Boulevard,San Ramon,CA,37.78389438,-121.9796758
4562,KFC2030 Dairy Mart Road,2030 Dairy Mart Road,San Ysidro,CA,32.56151203,-117.0625563
4563,KFC4698 Border Village Rd,4698 Border Village Rd,San Ysidro,CA,32.54775021,-117.0341447
4564,KFC1325 E. 17th Street,1325 E. 17th Street,Santa Ana,CA,33.76002648,-117.8507101
4565,KFC1345 South Main Street,1345 South Main Street,Santa Ana,CA,33.72999559,-117.867685
4566,KFC2600 S. Bristol St,2600 S. Bristol St,Santa Ana,CA,33.71237437,-117.8853944
4567,KFC762 South Harbor Blvd,762 South Harbor Blvd,Santa Ana,CA,33.73749747,-117.9201696
4568,KFC515 N. Milpas St,515 N. Milpas St,Santa Barbara,CA,34.42668916,-119.6858972
4569,KFC1353 El Camino Real,1353 El Camino Real,Santa Clara,CA,37.35319725,-121.9510494
4570,KFC2207 South Broadway,2207 South Broadway,Santa Maria,CA,34.92018871,-120.4361203
4571,KFC150 E Harvard Blvd,150 E Harvard Blvd,Santa Paula,CA,34.34662923,-119.0706573
4572,KFC2249 Santa Rosa Ave,2249 Santa Rosa Ave,Santa Rosa,CA,38.41724072,-122.7137229
4573,KFC3205 Cleveland Avenue,3205 Cleveland Avenue,Santa Rosa,CA,38.47315994,-122.7310885
4574,KFC401 Stony Point Road,401 Stony Point Road,Santa Rosa,CA,38.43231931,-122.742128
4575,KFC8890 Cuyamaca St,8890 Cuyamaca St,Santee,CA,32.83842467,-116.9839496
4576,KFC1175 Fremont Boulevard,1175 Fremont Boulevard,Seaside,CA,36.60242896,-121.8489942
4577,KFC2438 McCall Avenue,2438 McCall Avenue,Selma,CA,36.5699845,-119.6105904
4578,KFC8800 Sepulveda Blvd,8800 Sepulveda Blvd,Sepulveda,CA,34.23007498,-118.467624
4579,KFC1595 E. Los Angeles Avenue,1595 E. Los Angeles Avenue,Simi Valley,CA,34.2718487,-118.7680664
4580,KFC1001 Mono Way,1001 Mono Way,Sonora,CA,37.97566685,-120.3668433
4581,KFC1927 North Durfee,1927 North Durfee,South El Monte,CA,34.04503923,-118.0309011
4582,KFC1318 Huntington Drive,1318 Huntington Drive,South Pasadena,CA,34.10401004,-118.1530999
4583,KFC1111 El Camino Real,1111 El Camino Real,South San Francisco,CA,37.65659089,-122.4369108
4584,KFC199 Airport Boulevard,199 Airport Boulevard,South San Francisco,CA,37.65339536,-122.4086088
4585,KFC8330 Paradise Valley Rd,8330 Paradise Valley Rd,Spring Valley,CA,32.69728272,-117.0194053
4586,KFC12007 Beach Blvd,12007 Beach Blvd,Stanton,CA,33.78789942,-117.9931347
4587,KFC134 East Charter Way,134 East Charter Way,Stockton,CA,37.93895549,-121.285374
4588,KFC1537 N. Wilson Way,1537 N. Wilson Way,Stockton,CA,37.97135105,-121.2758714
4589,KFC3264 West Hammer Lane,3264 West Hammer Lane,Stockton,CA,38.02115305,-121.3571679
4590,KFC3519 East Hammer Lane,3519 East Hammer Lane,Stockton,CA,38.02134033,-121.270072
4591,KFC4450 East Waterloo Rd,4450 East Waterloo Rd,Stockton,CA,37.9877302,-121.2450939
4592,KFC4455 Pacific Ave,4455 Pacific Ave,Stockton,CA,37.98843336,-121.3117566
4593,KFC26660 Encanto Dr,26660 Encanto Dr,Sun City,CA,33.73364672,-117.1887799
4594,KFC1065 East El Camino Real,1065 East El Camino Real,Sunnyvale,CA,37.3523569,-122.0035127
4595,KFC1695 Hollenbeck Road,1695 Hollenbeck Road,Sunnyvale,CA,37.33819134,-122.0416263
4596,KFC340 West Maude Avenue,340 West Maude Avenue,Sunnyvale,CA,37.3892248,-122.0293928
4597,KFC3010 Riverside Drive,3010 Riverside Drive,Susanville,CA,40.40591348,-120.6318815
4598,KFC12910-B Foothill Boulevard,12910-B Foothill Boulevard,Sylmar,CA,34.29464333,-118.4165975
4599,KFC13924 Foothill Boulevard,13924 Foothill Boulevard,Sylmar,CA,34.31237842,-118.4367807
4600,KFC32425 Hwy 79,32425 Hwy 79,Temecula,CA,33.48287976,-117.0909533
4601,KFC3605 E Thousand Oaks Blvd,3605 E Thousand Oaks Blvd,Thousand Oaks,CA,34.16550436,-118.8307742
4602,KFC16502 South Crenshaw Boulevard,16502 South Crenshaw Boulevard,Torrance,CA,33.88066947,-118.3263741
4603,KFC2215 Sepulveda Blvd,2215 Sepulveda Blvd,Torrance,CA,33.82031177,-118.3202099
4604,KFC4525 Torrance Blvd,4525 Torrance Blvd,Torrance,CA,33.83768763,-118.3617984
4605,KFC2290 W. Grant Line Road,2290 W. Grant Line Road,Tracy,CA,37.75400383,-121.4586849
4606,KFC845 E. Prosperity,845 E. Prosperity,Tulare,CA,36.22574,-119.3363971
4607,KFC2705 W. Monte Vista Avenue,2705 W. Monte Vista Avenue,Turlock,CA,37.52197454,-120.8797454
4608,KFC400 North Golden State Boulevard,400 North Golden State Boulevard,Turlock,CA,37.49743081,-120.8481595
4609,KFC1022 E. First Street,1022 E. First Street,Tustin,CA,33.7449527,-117.8141136
4610,KFC1139 North State Street,1139 North State Street,Ukiah,CA,39.1651557,-123.2105009
4611,KFC32004 Alvarado Boulevard,32004 Alvarado Boulevard,Union City,CA,37.58889983,-122.0678948
4612,KFC100 Universal City Plaza,100 Universal City Plaza,Universal City,CA,34.1340234,-118.3516687
4613,KFC1188 W Foothill Blvd,1188 W Foothill Blvd,Upland,CA,34.10680284,-117.6695213
4614,KFC980 Alamo Drive,980 Alamo Drive,Vacaville,CA,38.34291655,-121.995214
4615,KFC1300 Georgia Street,1300 Georgia Street,Vallejo,CA,38.10097645,-122.2410435
4616,KFC2150 Redwood Street,2150 Redwood Street,Vallejo,CA,38.12226871,-122.2366247
4617,KFC14522 Burbank Blvd,14522 Burbank Blvd,Van Nuys,CA,34.17202808,-118.449673
4618,KFC3553 Telegraph Rd,3553 Telegraph Rd,Ventura,CA,34.27334167,-119.2470273
4619,KFC12125 Mariposa Road,12125 Mariposa Road,Victorville,CA,34.47107512,-117.34279
4620,KFC14284 Outer 7th Street,14284 Outer 7th Street,Victorville,CA,34.51042801,-117.319503
4621,KFC1699 East Noble Avenue,1699 East Noble Avenue,Visalia,CA,36.32563734,-119.2743001
4622,KFC5143 W. Walnut,5143 W. Walnut,Visalia,CA,36.31268458,-119.3482239
4623,KFC840 E. Vista Way,840 E. Vista Way,Vista,CA,33.21032958,-117.2341863
4624,KFC1610 Freedom Boulevard,1610 Freedom Boulevard,Watsonville,CA,36.93227371,-121.7700501
4625,KFC19080 La Puente Road,19080 La Puente Road,West Covina,CA,34.00999557,-117.8855577
4626,KFC555 South Glendora Avenue,555 South Glendora Avenue,West Covina,CA,34.06516291,-117.9280483
4627,KFC812 Westacre Road,812 Westacre Road,West Sacramento,CA,38.57968057,-121.5307097
4628,KFC6641 Westminster Blvd,6641 Westminster Blvd,Westminster,CA,33.7591873,-118.0126872
4629,KFC13106 Whittier Boulevard,13106 Whittier Boulevard,Whittier,CA,33.96501909,-118.0363037
4630,KFC16161 Leffingwell Road,16161 Leffingwell Road,Whittier,CA,33.93230314,-117.9859382
4631,KFC226 N. Humboldt Avenue,226 N. Humboldt Avenue,Willows,CA,39.52204965,-122.212081
4632,KFC6610 Hembree Lane,6610 Hembree Lane,Windsor,CA,38.5271015,-122.7906232
4633,KFC18585 Van Buren Blvd,18585 Van Buren Blvd,Woodcrest,CA,33.88708729,-117.3394804
4634,KFC83 West Main St,83 West Main St,Woodland,CA,38.67747652,-121.7874984
4635,KFC17520 Yorba Linda,17520 Yorba Linda,Yorba Linda,CA,33.88834347,-117.8275558
4636,KFC23030 Eastpark Drive,23030 Eastpark Drive,Yorba Linda,CA,33.872658,-117.7365147
4637,KFC1293 South Main Street,1293 South Main Street,Yreka,CA,41.71694401,-122.6400443
4638,KFC33911 Yucaipa Boulevard,33911 Yucaipa Boulevard,Yucaipa,CA,34.03380814,-117.0641294
4639,KFC56945 29 Palm Highway,56945 29 Palm Highway,Yucca Valley,CA,34.12111023,-116.4213799
4640,KFC2007 West Main Street,2007 West Main Street,Alamosa,CO,37.47146373,-105.8857404
4641,KFC6390 Sheridan Blvd,6390 Sheridan Blvd,Arvada,CO,39.81098526,-105.0531076
4642,KFC7785 Wadsworth Blvd,7785 Wadsworth Blvd,Arvada,CO,39.83856648,-105.0819626
4643,KFC9200 Ralston Road,9200 Ralston Road,Arvada,CO,39.8019491,-105.1009021
4644,KFC14411 East Colfax Avenue,14411 East Colfax Avenue,Aurora,CO,39.74035757,-104.8207445
4645,KFC15290 East Mississippi Avenue,15290 East Mississippi Avenue,Aurora,CO,39.69645989,-104.8108698
4646,KFC1551 S. Havana Street,1551 S. Havana Street,Aurora,CO,39.68868844,-104.8660938
4647,KFC16901 East Quincy,16901 East Quincy,Aurora,CO,39.63861861,-104.78942
4648,KFC3210 Arapahoe Avenue,3210 Arapahoe Avenue,Boulder,CO,40.01452654,-105.251091
4649,KFC4740 Bromley Lane,4740 Bromley Lane,Brighton,CO,39.97175591,-104.758315
4650,KFC6400 West 120th Avenue,6400 West 120th Avenue,Broomfield,CO,39.91407875,-105.0672972
4651,KFC186 Metzler Drive,186 Metzler Drive,Castle Rock,CO,39.40982495,-104.860121
4652,KFC3219 F Road,3219 F Road,Clifton,CO,39.09166699,-108.4557472
4653,KFC1050 North Academy Boulevard,1050 North Academy Boulevard,Colorado Springs,CO,38.8479142,-104.7576483
4654,KFC1501 South Nevada Avenue,1501 South Nevada Avenue,Colorado Springs,CO,38.81245388,-104.8222105
4655,KFC2835 New Center Point,2835 New Center Point,Colorado Springs,CO,38.87193125,-104.7155294
4656,KFC3101 W. Colorado Avenue,3101 W. Colorado Avenue,Colorado Springs,CO,38.85351923,-104.8728351
4657,KFC3255 South Academy Boulevard,3255 South Academy Boulevard,Colorado Springs,CO,38.78569493,-104.7573576
4658,KFC3775 Austin Bluffs Parkway,3775 Austin Bluffs Parkway,Colorado Springs,CO,38.89063035,-104.757805
4659,KFC5550 East Woodmen Road,5550 East Woodmen Road,Colorado Springs,CO,38.94026867,-104.7252846
4660,KFC8115 Dorothy Lane,8115 Dorothy Lane,Colorado Springs,CO,38.95059915,-104.8018114
4661,KFC825 East Fillmore Street,825 East Fillmore Street,Colorado Springs,CO,38.87404877,-104.8105394
4662,KFC15101 E. 104th Avenue,15101 E. 104th Avenue,Commerce City,CO,39.88560586,-104.812069
4663,KFC5101 E. 60th Avenue,5101 E. 60th Avenue,Commerce City,CO,39.80566066,-104.929112
4664,KFC2222 East Main Street,2222 East Main Street,Cortez,CO,37.34941006,-108.5575262
4665,KFC707 West Victory Way,707 West Victory Way,Craig,CO,40.51428328,-107.555558
4666,KFC15495 E. Andrews Drive,15495 E. Andrews Drive,Denver,CO,39.77384044,-104.8078579
4667,KFC1679 Federal Boulevard,1679 Federal Boulevard,Denver,CO,39.74387601,-105.025987
4668,KFC2096 South Colorado Boulevard,2096 South Colorado Boulevard,Denver,CO,39.67910383,-104.9405654
4669,KFC2815 Colorado Boulevard,2815 Colorado Boulevard,Denver,CO,39.75697947,-104.9407309
4670,KFC302 South Colorado Boulevard,302 South Colorado Boulevard,Denver,CO,39.71094544,-104.9405766
4671,KFC3110 South Sheridan,3110 South Sheridan,Denver,CO,39.6551459,-105.0530502
4672,KFC4880 N. Tower Road,4880 N. Tower Road,Denver,CO,39.78490906,-104.7719992
4673,KFC7140 Pecos Street,7140 Pecos Street,Denver,CO,39.82615938,-105.0061441
4674,KFC8500 Pena Blvd,8500 Pena Blvd,Denver,CO,39.85114888,-104.6748914
4675,KFC110 Collins Street,110 Collins Street,Eaton,CO,40.52452062,-104.711991
4676,KFC7384 McLaughlin Rd,7384 McLaughlin Rd,Falcon,CO,38.93948024,-104.6052369
4677,KFC4335 City Centre Blvd,4335 City Centre Blvd,Firestone,CO,40.15969,-104.9723121
4678,KFC1533 Prussman Boulevard,1533 Prussman Boulevard,Fort Carson,CO,38.74024007,-104.7846467
4679,KFC1227 E. Magnolia,1227 E. Magnolia,Fort Collins,CO,40.58432366,-105.0558859
4680,KFC4001 South College Avenue,4001 South College Avenue,Fort Collins,CO,40.53145923,-105.0772707
4681,KFC6660 Camden Ave,6660 Camden Ave,Fountain,CO,38.74495105,-104.7385998
4682,KFC1000 Lake Point Drive,1000 Lake Point Drive,Frisco,CO,39.59165907,-106.0946819
4683,KFC1111 North Avenue,1111 North Avenue,Grand Junction,CO,39.07729472,-108.5540643
4684,KFC2413 8th Avenue,2413 8th Avenue,Greeley,CO,40.39856817,-104.6911969
4685,KFC2804 West 10th Avenue,2804 West 10th Avenue,Greeley,CO,40.42276633,-104.7269059
4686,KFC10220 West Colfax Ave,10220 West Colfax Ave,Lakewood,CO,39.74010524,-105.113043
4687,KFC13109 W. Alameda Pkwy,13109 W. Alameda Pkwy,Lakewood,CO,39.69799156,-105.1453641
4688,KFC200 Wadsworth Boulevard,200 Wadsworth Boulevard,Lakewood,CO,39.72010809,-105.0813385
4689,KFC2599 South Lewis Way,2599 South Lewis Way,Lakewood,CO,39.66907628,-105.1122719
4690,KFC10161 West Bowles Avenue,10161 West Bowles Avenue,Littleton,CO,39.60980877,-105.1120551
4691,KFC1960 East County Line Road,1960 East County Line Road,Littleton,CO,39.566055,-104.9638379
4692,KFC2900 W. Belleview Avenue,2900 W. Belleview Avenue,Littleton,CO,39.62400029,-105.0231266
4693,KFC8164 S. Kipling Parkway,8164 S. Kipling Parkway,Littleton,CO,39.56782235,-105.10993
4694,KFC2604 Main Street,2604 Main Street,Longmont,CO,40.20319791,-105.102385
4695,KFC1650 Foxtrail Dr,1650 Foxtrail Dr,Loveland,CO,40.40917995,-105.0012552
4696,KFC2991 N. Garfield Avenue,2991 N. Garfield Avenue,Loveland,CO,40.42307864,-105.0774692
4697,KFC2175 South Townsend,2175 South Townsend,Montrose,CO,38.46260389,-107.8661251
4698,KFC10790 Washington Street,10790 Washington Street,Northglenn,CO,39.89218729,-104.9775824
4699,KFC16950 E. Lincoln Avenue,16950 E. Lincoln Avenue,Parker,CO,39.53374037,-104.7926118
4700,KFC1644 S. Prairie Avenue,1644 S. Prairie Avenue,Pueblo,CO,38.23974992,-104.6436128
4701,KFC4171 N. Elizabeth Street,4171 N. Elizabeth Street,Pueblo,CO,38.31137234,-104.6154219
4702,KFC625 Snapdragon Way,625 Snapdragon Way,Steamboat Springs,CO,40.46036265,-106.8201367
4703,KFC2581 E. 120th Ave,2581 E. 120th Ave,Thornton,CO,39.91395861,-104.9558189
4704,KFC212 Nevada Avenue,212 Nevada Avenue,Trinidad,CO,37.16995731,-104.5101235
4705,KFC457-A US Highway 85-87,457-A US Highway 85-87,Walsenburg,CO,37.65388753,-104.793271
4706,KFC250 W. 136th Avenue,250 W. 136th Avenue,Westminster,CO,39.94296088,-104.991719
4707,KFC9185 North Federal Boulevard,9185 North Federal Boulevard,Westminster,CO,39.8629551,-105.0252529
4708,KFC1590 Main Street,1590 Main Street,Windsor,CO,40.47957493,-104.9307997
4709,KFC1000 Blue Hills Avenue,1000 Blue Hills Avenue,Bloomfield,CT,41.8189732,-72.69549685
4710,KFC325 Boston Avenue,325 Boston Avenue,Bridgeport,CT,41.20044199,-73.18357613
4711,KFC4301 North Main Street,4301 North Main Street,Bridgeport,CT,41.21870106,-73.21552814
4712,KFC470 Farmington Avenue,470 Farmington Avenue,Bristol,CT,41.68937212,-72.92807781
4713,KFC250 Albany Turnpike,250 Albany Turnpike,Canton,CT,41.8291409,-72.90173486
4714,KFC32 Shunpike Road,32 Shunpike Road,Cromwell,CT,41.60182547,-72.67612839
4715,KFC1 Federal Road,1 Federal Road,Danbury,CT,41.43034589,-73.41570794
4716,KFC91 North Street,91 North Street,Danbury,CT,41.40903188,-73.45564886
4717,KFC578 Providence Rd,578 Providence Rd,Danielson,CT,41.79938054,-71.90149356
4718,KFC7 Pershing Drive,7 Pershing Drive,Derby,CT,41.3321328,-73.08433823
4719,KFC300 Burnside Avenue,300 Burnside Avenue,East Hartford,CT,41.77612244,-72.62579865
4720,KFC650 East Main Street,650 East Main Street,East Haven,CT,41.28485501,-72.88612374
4721,KFC41 Prospect Hill Rd,41 Prospect Hill Rd,East Windsor,CT,41.91846386,-72.61012914
4722,KFC230 Route,230 Route,Groton,CT,41.36885034,-72.07031661
4723,KFC1499 Dixwell Avenue,1499 Dixwell Avenue,Hamden,CT,41.35337161,-72.93007082
4724,KFC501 Farmington Avenue,501 Farmington Avenue,Hartford,CT,41.76647452,-72.7085632
4725,KFC779 Albany Avenue,779 Albany Avenue,Hartford,CT,41.77930697,-72.68940135
4726,"KFC307 Middle Turnpike, West","307 Middle Turnpike, West",Manchester,CT,41.78115963,-72.53789918
4727,KFC722 East Main Street,722 East Main Street,Meriden,CT,41.52964073,-72.7791708
4728,KFC382 South Main Street,382 South Main Street,Middletown,CT,41.54577416,-72.65131735
4729,KFC115 Bridge Street,115 Bridge Street,Naugatuck,CT,41.50178378,-73.05099258
4730,KFC412 West Main Street,412 West Main Street,New Britain,CT,41.66515544,-72.79580478
4731,KFC311 Whalley Avenue,311 Whalley Avenue,New Haven,CT,41.3170659,-72.94343472
4732,KFC451 Foxon Boulevard,451 Foxon Boulevard,New Haven,CT,41.31981646,-72.87017311
4733,KFC315 Westport Ave,315 Westport Ave,Norwalk,CT,41.12539118,-73.39385451
4734,KFC45 Salem Turnpike,45 Salem Turnpike,Norwich,CT,41.5135013,-72.10756762
4735,KFC480 Boston Post Road,480 Boston Post Road,Orange,CT,41.25644695,-73.01415042
4736,KFC866 Queen Street,866 Queen Street,Southington,CT,41.64057963,-72.87412564
4737,KFC285 W. Main Street,285 W. Main Street,Stamford,CT,41.04940118,-73.5497668
4738,KFC1322 Barnum Avenue,1322 Barnum Avenue,Stratford,CT,41.1971816,-73.13698043
4739,KFC581 Winsted Road,581 Winsted Road,Torrington,CT,41.82783706,-73.11049787
4740,KFC328 Hartford Turnpike,328 Hartford Turnpike,Vernon Rockville,CT,41.82690888,-72.4900518
4741,KFC649 West Main Street,649 West Main Street,Waterbury,CT,41.55834845,-73.0505625
4742,KFC717 Lakewood Road,717 Lakewood Road,Waterbury,CT,41.57220362,-73.00943598
4743,KFC930 New Britain Avenue,930 New Britain Avenue,West Hartford,CT,41.73131443,-72.71561122
4744,KFC31 Town Line Road,31 Town Line Road,Wethersfield,CT,41.6830392,-72.65547997
4745,KFC1589 West Main Street,1589 West Main Street,Willimantic,CT,41.7221675,-72.23855794
4746,KFC7 Food Court Pentagon 2c754,7 Food Court Pentagon 2c754,Washington,DC,38.86688374,-77.05576145
4747,KFC220 Fox Hunt Dr,220 Fox Hunt Dr,Bear,DE,39.6081755,-75.71305678
4748,KFC344 Walmart Drive,344 Walmart Drive,Camden,DE,39.10117509,-75.54444055
4749,KFC609 Naamans Rd,609 Naamans Rd,Claymont,DE,39.81668064,-75.4571245
4750,KFC223 S. Dupont Hwy,223 S. Dupont Hwy,Dover,DE,39.16097496,-75.5129959
4751,KFC1 Georgetown Plaza,1 Georgetown Plaza,Georgetown,DE,38.68066367,-75.39524174
4752,KFC649 N. Dupont Blvd,649 N. Dupont Blvd,Milford,DE,38.9174575,-75.44151328
4753,KFC112 N Dupont Hwy,112 N Dupont Hwy,New Castle,DE,39.66701131,-75.60129713
4754,KFC23458 Sussex Highway,23458 Sussex Highway,Seaford,DE,38.6542169,-75.59469185
4755,KFC134 N Dupont Blvd,134 N Dupont Blvd,Smyrna,DE,39.30477679,-75.6054977
4756,KFC1925 Lancaster Ave,1925 Lancaster Ave,Wilmington,DE,39.74673033,-75.57415943
4757,KFC356 E Main Street,356 E Main Street,Apopka,FL,28.67299871,-81.50384409
4758,KFC2333 Southeast Highway 70,2333 Southeast Highway 70,Arcadia,FL,27.20886,-81.83005158
4759,KFC3105 Havendale Boulevard,3105 Havendale Boulevard,Auburndale,FL,28.05261601,-81.77335008
4760,KFC1492 N. Broadway Avenue,1492 N. Broadway Avenue,Bartow,FL,27.90854111,-81.84325775
4761,KFC959 South Main Street,959 South Main Street,Belle Glade,FL,26.67371399,-80.67032243
4762,KFC5120 SE Abshier Blvd,5120 SE Abshier Blvd,Belleview,FL,29.06073152,-82.0638416
4763,KFC1601 N Federal Highway,1601 N Federal Highway,Boca Raton,FL,26.36531486,-80.079785
4764,KFC28200 S. Tamiami Trail,28200 S. Tamiami Trail,Bonita Springs,FL,26.32695033,-81.80582415
4765,KFC131 E. Boynton Beach Blvd,131 E. Boynton Beach Blvd,Boynton Beach,FL,26.52897971,-80.06275075
4766,KFC360 North Congress Ave,360 North Congress Ave,Boynton Beach,FL,26.53008048,-80.09039748
4767,KFC1420 Cortez Road West,1420 Cortez Road West,Bradenton,FL,27.46251602,-82.5766488
4768,KFC525 First Street East,525 First Street East,Bradenton,FL,27.4940596,-82.5628265
4769,KFC6440 E. State Road 64,6440 E. State Road 64,Bradenton,FL,27.49192747,-82.47908569
4770,KFC1102 West Brandon Blvd,1102 West Brandon Blvd,Brandon,FL,27.9378871,-82.29999037
4771,"KFC1145 U.S. Highway 41, S","1145 U.S. Highway 41, S",Brooksville,FL,28.44968102,-82.45328684
4772,KFC1969 W. County Road 48,1969 W. County Road 48,Bushnell,FL,28.66855098,-82.13681846
4773,KFC20 Hancock Bridge Parkway,20 Hancock Bridge Parkway,Cape Coral,FL,26.65038064,-81.97495473
4774,KFC2210 South Del Prado Boulevard,2210 South Del Prado Boulevard,Cape Coral,FL,26.61064609,-81.94127592
4775,KFC1594 Main Street,1594 Main Street,Chipley,FL,30.75576154,-85.54958405
4776,KFC1648 S. Missouri Avenue,1648 S. Missouri Avenue,Clearwater,FL,27.93706638,-82.78755959
4777,KFC1960 Gulf To Bay Boulevard,1960 Gulf To Bay Boulevard,Clearwater,FL,27.96068524,-82.75611392
4778,KFC510 U.S. Hwy 27,510 U.S. Hwy 27,Clermont,FL,28.35300594,-81.67536712
4779,KFC590 E. South Highway 50,590 E. South Highway 50,Clermont,FL,28.54936114,-81.74830044
4780,KFC411 West Sugarland Highway,411 West Sugarland Highway,Clewiston,FL,26.75428049,-80.93854578
4781,KFC5990 S. Flamingo Road,5990 S. Flamingo Road,Cooper City,FL,26.04629216,-80.3128967
4782,KFC10395 W. Sample Rd,10395 W. Sample Rd,Coral Springs,FL,26.27274535,-80.26484434
4783,KFC5850 Wiles Road,5850 Wiles Road,Coral Springs,FL,26.28604383,-80.20451428
4784,KFC511 North Ferdon Boulevard,511 North Ferdon Boulevard,Crestview,FL,30.76506862,-86.56890023
4785,KFC849 South Highway 19,849 South Highway 19,Crystal River,FL,28.88816504,-82.58421445
4786,KFC13245 U.S. Highway 301,13245 U.S. Highway 301,Dade City,FL,28.35108584,-82.18765108
4787,KFC4200 SW 64th Ave,4200 SW 64th Ave,Davie,FL,26.06912534,-80.23217555
4788,KFC948 Mason Avenue,948 Mason Avenue,Daytona Beach,FL,29.22020467,-81.04646852
4789,KFC177 N. Powerline Rd,177 N. Powerline Rd,Deerfield Beach,FL,26.31987523,-80.15301072
4790,KFC2482 US Hwy. 331 S,2482 US Hwy. 331 S,Defuniak Springs,FL,30.68629727,-86.12273471
4791,KFC1206 South Woodland Boulevard,1206 South Woodland Boulevard,Deland,FL,29.00852048,-81.3029032
4792,KFC1408 North Woodland Boulevard,1408 North Woodland Boulevard,Deland,FL,29.05248882,-81.30438359
4793,KFC14470 So. Military Trail,14470 So. Military Trail,Delray Beach,FL,26.46168837,-80.12243427
4794,KFC360 Linton Blvd,360 Linton Blvd,Delray Beach,FL,26.43961188,-80.07656576
4795,KFC1232 Providence Boulevard,1232 Providence Boulevard,Deltona,FL,28.88295103,-81.24069018
4796,KFC956 Patricia Ave,956 Patricia Ave,Dunedin,FL,28.01816463,-82.77574791
4797,KFC11583 N. Williams St,11583 N. Williams St,Dunnellon,FL,29.055232,-82.45644662
4798,KFC349 E. Semoran Boulevard,349 E. Semoran Boulevard,Fern Park,FL,28.65767538,-81.33649174
4799,KFC232 S.E. 1st Avenue,232 S.E. 1st Avenue,Florida City,FL,25.44583358,-80.47521834
4800,KFC3061 W Sunrise Blvd,3061 W Sunrise Blvd,Fort Lauderdale,FL,26.13641553,-80.18598768
4801,KFC3100 W Broward Blvd,3100 W Broward Blvd,Fort Lauderdale,FL,26.12106345,-80.18627755
4802,KFC401 W Broward Blvd,401 W Broward Blvd,Fort Lauderdale,FL,26.12236915,-80.14786182
4803,KFC990 W. Commercial Blvd,990 W. Commercial Blvd,Fort Lauderdale,FL,26.18832452,-80.15654871
4804,KFC12250 South Cleveland Avenue,12250 South Cleveland Avenue,Fort Myers,FL,26.56444209,-81.87306976
4805,KFC4336 Palm Beach Boulevard,4336 Palm Beach Boulevard,Fort Myers,FL,26.66866703,-81.82603525
4806,KFC2801 Reynolds Drive,2801 Reynolds Drive,Fort Pierce,FL,27.41299237,-80.39403779
4807,KFC405 South Fourth Street,405 South Fourth Street,Fort Pierce,FL,27.44380094,-80.32601995
4808,KFC500 Mary Esther Cutoff,500 Mary Esther Cutoff,Fort Walton Beach,FL,30.42398667,-86.64738027
4809,KFC1231 East University Avenue,1231 East University Avenue,Gainesville,FL,29.65182587,-82.30912094
4810,KFC3525 Southwest Archer Road,3525 Southwest Archer Road,Gainesville,FL,29.62335044,-82.37599093
4811,KFC3750 NW 13th Street,3750 NW 13th Street,Gainesville,FL,29.68618772,-82.33921307
4812,KFCNewell Dr & Stadium Rd,Newell Dr & Stadium Rd,Gainesville,FL,29.6486317,-82.34278354
4813,KFC4507 Lake Worth Road,4507 Lake Worth Road,Greenacres,FL,26.61862146,-80.1152223
4814,KFC6712 Forest Hills Blvd,6712 Forest Hills Blvd,Greenacres,FL,26.6510046,-80.14819903
4815,KFC14405 Monte Vista Road,14405 Monte Vista Road,Groveland,FL,28.5568372,-81.8350348
4816,KFC3850 Gulf Breeze Parkway,3850 Gulf Breeze Parkway,Gulf Breeze,FL,30.39049438,-87.06335693
4817,KFC35854 Highway 27,35854 Highway 27,Haines City,FL,28.12170279,-81.63991394
4818,KFC815 W Hallandale Beach Blvd,815 W Hallandale Beach Blvd,Hallandale,FL,25.98500627,-80.1601265
4819,KFC8001 NW 95th Street,8001 NW 95th Street,Hialeah Gardens,FL,25.85985655,-80.32791615
4820,KFC15402 NW 77th Ct,15402 NW 77th Ct,Hialeah,FL,25.91402248,-80.32691614
4821,KFC444 Hialeah Dr,444 Hialeah Dr,Hialeah,FL,25.82288235,-80.27253891
4822,KFC6725 West 28th Avenue,6725 West 28th Avenue,Hialeah,FL,25.88336571,-80.33947673
4823,KFC811 West 49th Street,811 West 49th Street,Hialeah,FL,25.86675905,-80.29951087
4824,KFC2039 US Hwy19,2039 US Hwy19,Holiday,FL,28.18918871,-82.7401109
4825,KFC5951 Sheridan Street,5951 Sheridan Street,Hollywood,FL,26.03230319,-80.20728716
4826,KFC30010 S. Federal Hwy,30010 S. Federal Hwy,Homestead,FL,25.48779345,-80.45810118
4827,KFC630 N. 15th Street,630 N. 15th Street,Immokalee,FL,26.42699278,-81.43361291
4828,"KFC1110 Highway 41, North","1110 Highway 41, North",Inverness,FL,28.83785202,-82.34210109
4829,KFC1007 Lane Ave S,1007 Lane Ave S,Jacksonville,FL,30.30731912,-81.75182557
4830,KFC10770 Beach Blvd,10770 Beach Blvd,Jacksonville,FL,30.28662343,-81.53761892
4831,KFC1146 Dunn Ave,1146 Dunn Ave,Jacksonville,FL,30.42977439,-81.66485068
4832,KFC1909 N. Main Street,1909 N. Main Street,Jacksonville,FL,30.34708786,-81.6533898
4833,KFC2258 Edgewood Ave. W,2258 Edgewood Ave. W,Jacksonville,FL,30.37875983,-81.69858845
4834,KFC3930 University Blvd W,3930 University Blvd W,Jacksonville,FL,30.26341885,-81.62256367
4835,KFC4201 Oldfield Crossing Drive,4201 Oldfield Crossing Drive,Jacksonville,FL,30.16673265,-81.60301268
4836,KFC4495 Roosevelt Blvd,4495 Roosevelt Blvd,Jacksonville,FL,30.28065057,-81.7200226
4837,KFC7276 103rd Street,7276 103rd Street,Jacksonville,FL,30.24819158,-81.76660813
4838,KFC8003 Merrill Rd,8003 Merrill Rd,Jacksonville,FL,30.35242461,-81.56216403
4839,KFC8033 Normandy Blvd,8033 Normandy Blvd,Jacksonville,FL,30.2921538,-81.78264317
4840,KFC8761 Baymeadows Rd,8761 Baymeadows Rd,Jacksonville,FL,30.2210003,-81.57510245
4841,KFC9551 Regency Square Blvd North,9551 Regency Square Blvd North,Jacksonville,FL,30.32994629,-81.54961778
4842,KFC3315 N.W. Federal Highway,3315 N.W. Federal Highway,Jensen Beach,FL,27.24534919,-80.27092822
4843,KFC6700 W. Indiantown Rd,6700 W. Indiantown Rd,Jupiter,FL,26.93429372,-80.13792562
4844,KFC1130 W. Osceola Pkwy,1130 W. Osceola Pkwy,Kissimmee,FL,28.34137633,-81.41423443
4845,KFC1907 W. Irlo Bronson Hwy,1907 W. Irlo Bronson Hwy,Kissimmee,FL,28.30460809,-81.42381534
4846,KFC1924 E Irlo Bronson Memorial Hwy,1924 E Irlo Bronson Memorial Hwy,Kissimmee,FL,28.2929051,-81.36496017
4847,KFC1978 E. Osceola Parkway,1978 E. Osceola Parkway,Kissimmee,FL,28.34478012,-81.36435418
4848,KFC3185 S. John Young Parkway,3185 S. John Young Parkway,Kissimmee,FL,28.26329059,-81.43258376
4849,KFC5680 W US Highway 192,5680 W US Highway 192,Kissimmee,FL,28.33244521,-81.5127949
4850,KFC1005 Bichara Blvd,1005 Bichara Blvd,Lady Lake,FL,28.93903528,-81.94409679
4851,KFC313 S.W. Baya Drive,313 S.W. Baya Drive,Lake City,FL,30.18433863,-82.64064393
4852,KFC3890 Lake Emma Road,3890 Lake Emma Road,Lake Mary,FL,28.7552016,-81.35797718
4853,KFC885 U.S. Highway 60 West,885 U.S. Highway 60 West,Lake Wales,FL,27.89886288,-81.60485631
4854,KFC3025 S. Florida Avenue,3025 S. Florida Avenue,Lakeland,FL,28.00778567,-81.95711512
4855,"KFC3630 U.S. Highway 98, N","3630 U.S. Highway 98, N",Lakeland,FL,28.08896504,-81.97519849
4856,KFC5204 S. Florida Avenue,5204 S. Florida Avenue,Lakeland,FL,27.97273294,-81.96128863
4857,KFC727 E. Memorial Boulevard,727 E. Memorial Boulevard,Lakeland,FL,28.05490261,-81.95002618
4858,KFC21617 Village Lakes Shopping Center,21617 Village Lakes Shopping Center,Land O' Lakes,FL,28.18977881,-82.45890725
4859,KFC1226 West Lantana,1226 West Lantana,Lantana,FL,26.5870203,-80.06387262
4860,KFC13677 Walsingham Road,13677 Walsingham Road,Largo,FL,27.8805214,-82.82782523
4861,KFC3298 N State Road 7,3298 N State Road 7,Lauderdale Lakes,FL,26.16612585,-80.20297782
4862,KFC700 North 14th Street,700 North 14th Street,Leesburg,FL,28.81768498,-81.88739642
4863,KFC823 South Ohio Avenue,823 South Ohio Avenue,Live Oak,FL,30.28904022,-82.98763904
4864,KFC2209 So. Hwy. 77,2209 So. Hwy. 77,Lynn Haven,FL,30.22394436,-85.6491297
4865,KFC1480 S. 6th Street,1480 S. 6th Street,MacClenny,FL,30.26306707,-82.12295223
4866,KFC6501 Overseas Highway,6501 Overseas Highway,Marathon,FL,24.71842852,-81.06704985
4867,KFC2446 N. State Road 7,2446 N. State Road 7,Margate,FL,26.25858241,-80.20135501
4868,KFC4337 Lafayette Street,4337 Lafayette Street,Marianna,FL,30.77603176,-85.23440996
4869,KFC3000 Lake Washington Road,3000 Lake Washington Road,Melbourne,FL,28.14672956,-80.67302212
4870,KFC17701 NW 27th Avenue,17701 NW 27th Avenue,Miami Gardens,FL,25.93572658,-80.24493962
4871,KFC4800 NW 183rd Street,4800 NW 183rd Street,Miami Gardens,FL,25.93954601,-80.27897402
4872,KFC10725 NW 41st Street,10725 NW 41st Street,Miami,FL,25.81176883,-80.37071819
4873,KFC11585 Quail Roost Drive,11585 Quail Roost Drive,Miami,FL,25.59226044,-80.37919659
4874,KFC11975 SW 152nd Street,11975 SW 152nd Street,Miami,FL,25.62724422,-80.38635117
4875,KFC12566 SW 120th St,12566 SW 120th St,Miami,FL,25.65647721,-80.39663349
4876,KFC13200 SW 8th St,13200 SW 8th St,Miami,FL,25.76076598,-80.41064511
4877,KFC14081 SW 88th St,14081 SW 88th St,Miami,FL,25.68530799,-80.42153078
4878,KFC14790 SW 56th St,14790 SW 56th St,Miami,FL,25.71379183,-80.43244493
4879,KFC19775 S Dixie Hwy,19775 S Dixie Hwy,Miami,FL,25.58480877,-80.36345525
4880,KFC2375 SW 8th Street,2375 SW 8th Street,Miami,FL,25.76566447,-80.23472452
4881,KFC3515 N.W. Seventh Avenue,3515 N.W. Seventh Avenue,Miami,FL,25.80970987,-80.20691458
4882,KFC3535 SW 22nd Street,3535 SW 22nd Street,Miami,FL,25.75010515,-80.25056431
4883,KFC3855 NW 27th Avenue,3855 NW 27th Avenue,Miami,FL,25.81138811,-80.24017786
4884,KFC4200 NW 21 Street,4200 NW 21 Street,Miami,FL,25.79664889,-80.27502365
4885,KFC5826 Bird Road,5826 Bird Road,Miami,FL,25.73381168,-80.28928443
4886,KFC6195 NW 27th Ave,6195 NW 27th Ave,Miami,FL,25.83083646,-80.24096817
4887,KFC701 NW 119th St,701 NW 119th St,Miami,FL,25.88383734,-80.21094212
4888,KFC720 NW 37th Avenue,720 NW 37th Avenue,Miami,FL,25.78014091,-80.25581491
4889,KFC7360 SW 117th Ave,7360 SW 117th Ave,Miami,FL,25.69802409,-80.3822426
4890,KFC8363 W Flagler Street,8363 W Flagler Street,Miami,FL,25.76983029,-80.33027734
4891,KFC8760 Coral Way,8760 Coral Way,Miami,FL,25.74747753,-80.33686639
4892,KFC949 SW 107th Ave,949 SW 107th Ave,Miami,FL,25.75973009,-80.36819574
4893,KFC9690 S Dixie Hwy,9690 S Dixie Hwy,Miami,FL,25.68100163,-80.31697848
4894,KFC2693 Blanding Blvd,2693 Blanding Blvd,Middleburg,FL,30.06184586,-81.87533794
4895,KFC3650 Utopia Drive,3650 Utopia Drive,Miramar,FL,25.97515263,-80.24593551
4896,KFC6090 Miramar Parkway,6090 Miramar Parkway,Miramar,FL,25.98435382,-80.20854209
4897,KFC16800 W. New Hwy 441,16800 W. New Hwy 441,Mount Dora,FL,28.82123074,-81.67854968
4898,KFC12225 Collier Boulevard,12225 Collier Boulevard,Naples,FL,26.19361178,-81.68727039
4899,KFC8688 Navarre Parkway,8688 Navarre Parkway,Navarre,FL,30.40187184,-86.85987825
4900,KFC626 Atlantic Boulevard,626 Atlantic Boulevard,Neptune Beach,FL,30.32445443,-81.4040502
4901,KFC4312 U.S. Highway 19,4312 U.S. Highway 19,New Port Richey,FL,28.22160641,-82.73395906
4902,KFC8242 Little Road,8242 Little Road,New Port Richey,FL,28.27681302,-82.67414536
4903,KFC2000 West State Road 44,2000 West State Road 44,New Smyrna Beach,FL,29.01340236,-80.9484109
4904,KFC205 W. John Sims Parkway,205 W. John Sims Parkway,Niceville,FL,30.52278713,-86.49665502
4905,KFC13160 Highway 41 North,13160 Highway 41 North,North Fort Myers,FL,26.66021032,-81.88350104
4906,KFC7107 W McNab Road,7107 W McNab Road,North Lauderdale,FL,26.20961339,-80.22039388
4907,KFC13801 North East Biscayne Boulevard,13801 North East Biscayne Boulevard,North Miami Beach,FL,25.90320759,-80.15938456
4908,KFC16215 Northeast 15th Avenue,16215 Northeast 15th Avenue,North Miami Beach,FL,25.92473332,-80.16970973
4909,KFC20285 Northwest 2nd Avenue,20285 Northwest 2nd Avenue,North Miami Beach,FL,25.96088183,-80.20563936
4910,KFC2561 Northlake Blvd,2561 Northlake Blvd,North Palm Beach,FL,26.80814052,-80.0746226
4911,KFC2101 W Oakland Blvd,2101 W Oakland Blvd,Oakland Park,FL,26.16569623,-80.17081745
4912,KFC3810 SW College Rd,3810 SW College Rd,Ocala,FL,29.14751698,-82.18663705
4913,KFCMile Post 263,Mile Post 263,Ocoee,FL,28.5170599,-81.5033719
4914,KFC3387 Highway 441 South,3387 Highway 441 South,Okeechobee,FL,27.21308962,-80.82999231
4915,KFCMile Marker 184,Mile Marker 184,Okeechobee,FL,27.60424767,-80.82529867
4916,KFC914 Saxon Blvd,914 Saxon Blvd,Orange City,FL,28.91109157,-81.28819159
4917,KFC17 Blanding Blvd,17 Blanding Blvd,Orange Park,FL,30.18834795,-81.7391364
4918,KFC10825 E Colonial Dr,10825 E Colonial Dr,Orlando,FL,28.5693073,-81.22797663
4919,KFC11302 S Orange Blossom Trl,11302 S Orange Blossom Trl,Orlando,FL,28.40151777,-81.40475878
4920,KFC12195 S. Apopka Vineland Rd,12195 S. Apopka Vineland Rd,Orlando,FL,28.38808759,-81.50625067
4921,KFC2882 N Hiawassee Rd,2882 N Hiawassee Rd,Orlando,FL,28.58013533,-81.47616417
4922,KFC3009 W Colonial Drive,3009 W Colonial Drive,Orlando,FL,28.55296904,-81.41592818
4923,KFC426 East Michigan Street,426 East Michigan Street,Orlando,FL,28.51290187,-81.37091315
4924,KFC436 S Semoran Blvd,436 S Semoran Blvd,Orlando,FL,28.53818198,-81.31068415
4925,KFC502 S Alafaya Trail,502 S Alafaya Trail,Orlando,FL,28.53888708,-81.20793228
4926,KFC5173 Kirkman Road,5173 Kirkman Road,Orlando,FL,28.4869152,-81.4586853
4927,KFC5200 S John Young Parkway,5200 S John Young Parkway,Orlando,FL,28.48817608,-81.41792542
4928,KFC5780 Central Florida Parkway,5780 Central Florida Parkway,Orlando,FL,28.40734633,-81.4536549
4929,KFC5808 Cinderlane Pkwy,5808 Cinderlane Pkwy,Orlando,FL,28.61085163,-81.42793284
4930,KFC6041 S. Goldenrod Rd,6041 S. Goldenrod Rd,Orlando,FL,28.47552358,-81.28951281
4931,KFC6217 International Rd,6217 International Rd,Orlando,FL,28.46233186,-81.46488938
4932,KFC6607 West Colonial Drive,6607 West Colonial Drive,Orlando,FL,28.55228412,-81.47325957
4933,KFC294 West Granada Avenue,294 West Granada Avenue,Ormond Beach,FL,29.2824194,-81.06325006
4934,KFC4683 Highway 90,4683 Highway 90,Pace,FL,30.60300929,-87.12794
4935,KFC409 South State Road 19,409 South State Road 19,Palatka,FL,29.64454785,-81.67484665
4936,"KFC4901 Babcock Street, N.E","4901 Babcock Street, N.E",Palm Bay,FL,28.02887382,-80.62187856
4937,KFC3 Old Kings Road,3 Old Kings Road,Palm Coast,FL,29.55650948,-81.2127729
4938,KFC33420 US Highway 19 North,33420 US Highway 19 North,Palm Harbor,FL,28.07577708,-82.73922833
4939,KFC427 S. Tyndall Parkway,427 S. Tyndall Parkway,Panama City,FL,30.1394493,-85.59105672
4940,KFC15821 Pines Blvd,15821 Pines Blvd,Pembroke Pines,FL,26.0078454,-80.3588778
4941,KFC1836 University Drive,1836 University Drive,Pembroke Pines,FL,26.0253523,-80.24888755
4942,KFC9951 Pines Blvd,9951 Pines Blvd,Pembroke Pines,FL,26.00848101,-80.27733671
4943,KFC5 W. Nine Mile Road,5 W. Nine Mile Road,Pensacola,FL,30.53307452,-87.27464724
4944,KFC5080 N. 9th Ave,5080 N. 9th Ave,Pensacola,FL,30.47300781,-87.21176395
4945,KFC6000 Mobile Highway,6000 Mobile Highway,Pensacola,FL,30.46201127,-87.30125782
4946,KFC2100 South Byron Butler,2100 South Byron Butler,Perry,FL,30.09826626,-83.58309916
4947,KFC6595 Park Boulevard,6595 Park Boulevard,Pinellas Park,FL,27.83927013,-82.72797571
4948,KFC2305 James L Redman Parkway,2305 James L Redman Parkway,Plant City,FL,27.9907796,-82.12169237
4949,KFC8221 West Broward Blvd,8221 West Broward Blvd,Plantation,FL,26.12098588,-80.2589669
4950,KFC4466 Pleasant Hill Road,4466 Pleasant Hill Road,Poinciana,FL,28.15675262,-81.44015923
4951,KFC2150 W. Atlantic Blvd,2150 W. Atlantic Blvd,Pompano Beach,FL,26.23011948,-80.15353056
4952,KFC2292 N. Federal Hwy,2292 N. Federal Hwy,Pompano Beach,FL,26.25858862,-80.09971889
4953,KFC341 W Atlantic Blvd,341 W Atlantic Blvd,Pompano Beach,FL,26.23175795,-80.12812747
4954,KFC4635 Tamiami Trail,4635 Tamiami Trail,Port Charlotte,FL,26.96124483,-82.07048719
4955,KFC1035 Dunlawton Avenue,1035 Dunlawton Avenue,Port Orange,FL,29.12690948,-81.00660601
4956,KFC11818 U.S. Highway 19,11818 U.S. Highway 19,Port Richey,FL,28.3293803,-82.69904334
4957,KFC9406 U.S. Highway 19,9406 U.S. Highway 19,Port Richey,FL,28.29459395,-82.70859249
4958,"KFC6105 No U.S. Highway, 1","6105 No U.S. Highway, 1",Port Saint John,FL,28.47150712,-80.76683466
4959,KFC1641 N.W. Saint Lucie West Boulevard,1641 N.W. Saint Lucie West Boulevard,Port Saint Lucie,FL,27.31277687,-80.39911353
4960,KFC246 S.W. Port St. Lucie Boulevard,246 S.W. Port St. Lucie Boulevard,Port Saint Lucie,FL,27.27414714,-80.35284582
4961,KFC1307 W. Jefferson St,1307 W. Jefferson St,Quincy,FL,30.58780767,-84.59307484
4962,KFC7007 US 301 S,7007 US 301 S,Riverview,FL,27.87896266,-82.32727169
4963,KFC1581 W. Blue Heron Blvd,1581 W. Blue Heron Blvd,Riviera Beach,FL,26.78103445,-80.0806219
4964,KFC1842 Rockledge Blvd,1842 Rockledge Blvd,Rockledge,FL,28.32864234,-80.72066816
4965,KFC667 Royal Palm Beach Blvd,667 Royal Palm Beach Blvd,Royal Palm Beach,FL,26.68233285,-80.23028093
4966,KFC3102 College Avenue East,3102 College Avenue East,Ruskin,FL,27.71318261,-82.39320201
4967,"KFC1805 U.S. Highway 1, S","1805 U.S. Highway 1, S",Saint Augustine,FL,29.86817958,-81.32334611
4968,KFC2515 County Road 208,2515 County Road 208,Saint Augustine,FL,29.91825526,-81.41564292
4969,KFC2200 Old Canoe Creek Rd,2200 Old Canoe Creek Rd,Saint Cloud,FL,28.19797466,-81.29473937
4970,KFC2733 13th St,2733 13th St,Saint Cloud,FL,28.24587957,-81.30016685
4971,KFC2430 34th St S,2430 34th St S,Saint Petersburg,FL,27.74619368,-82.67917259
4972,"KFC6300 Ninth Street, N","6300 Ninth Street, N",Saint Petersburg,FL,27.82939988,-82.64714441
4973,"KFC770 34th Street, N","770 34th Street, N",Saint Petersburg,FL,27.77991485,-82.67953722
4974,KFC3601 S. Orlando Dr,3601 S. Orlando Dr,Sanford,FL,28.76212641,-81.28365461
4975,KFC3780 Bee Ridge Road,3780 Bee Ridge Road,Sarasota,FL,27.29866628,-82.4938029
4976,KFC6301 15th Street E,6301 15th Street E,Sarasota,FL,27.42885175,-82.54661959
4977,KFC1809 U.S. Highway 1,1809 U.S. Highway 1,Sebastian,FL,27.82838492,-80.47826872
4978,"KFC960 U.S. Highway 27, N","960 U.S. Highway 27, N",Sebring,FL,27.49186819,-81.48443146
4979,KFC803 Dr. Martin Luther King Boulevard,803 Dr. Martin Luther King Boulevard,Seffner,FL,27.98170282,-82.28790024
4980,KFC640 South Walnut,640 South Walnut,Starke,FL,29.939216,-82.1114637
4981,KFC2419 SE Federal Highway,2419 SE Federal Highway,Stuart,FL,27.17669312,-80.23531516
4982,KFC2491 North University Dr,2491 North University Dr,Sunrise,FL,26.15529285,-80.25737135
4983,KFC3300 N. Nob Hill Road,3300 N. Nob Hill Road,Sunrise,FL,26.16815285,-80.28456559
4984,KFC2828 North Monroe Street,2828 North Monroe Street,Tallahassee,FL,30.48055845,-84.30372498
4985,KFC3008 Apalachee Parkway,3008 Apalachee Parkway,Tallahassee,FL,30.42746975,-84.22735615
4986,KFC4650 W. Tennessee Street,4650 W. Tennessee Street,Tallahassee,FL,30.45907908,-84.36041685
4987,KFC7556 NW 58th Street,7556 NW 58th Street,Tamarac,FL,26.19688982,-80.25175084
4988,KFC1605 W. Kennedy Boulevard,1605 W. Kennedy Boulevard,Tampa,FL,27.9447736,-82.47569612
4989,KFC1733 N. 50th Street,1733 N. 50th Street,Tampa,FL,27.96154555,-82.40167255
4990,KFC2212 E. Fowler Avenue,2212 E. Fowler Avenue,Tampa,FL,28.05465169,-82.43207922
4991,KFC3202 E. Hillsborough Avenue,3202 E. Hillsborough Avenue,Tampa,FL,27.99619313,-82.4237488
4992,KFC3509 E. Busch Boulevard,3509 E. Busch Boulevard,Tampa,FL,28.03246297,-82.42016305
4993,KFC4302 N. Armenia Avenue,4302 N. Armenia Avenue,Tampa,FL,27.98054573,-82.48477672
4994,KFC4402 W. Gandy Boulevard,4402 W. Gandy Boulevard,Tampa,FL,27.89332003,-82.51898513
4995,KFC5367 Ehrlich Road,5367 Ehrlich Road,Tampa,FL,28.08299581,-82.54258659
4996,KFC7605 W. Hillsborough Avenue,7605 W. Hillsborough Avenue,Tampa,FL,27.99673171,-82.5648572
4997,KFC8201 N. Florida Avenue,8201 N. Florida Avenue,Tampa,FL,28.0229527,-82.45942085
4998,KFC8550 N. Dale Mabry Highway,8550 N. Dale Mabry Highway,Tampa,FL,28.02887094,-82.50512502
4999,KFC12 N. Washington Avenue,12 N. Washington Avenue,Titusville,FL,28.61566878,-80.80757831
5000,KFC2218 East Bloomingdale Avenue,2218 East Bloomingdale Avenue,Valrico,FL,27.89376343,-82.24581522
5001,KFC4040 20th Street,4040 20th Street,Vero Beach,FL,27.63862078,-80.4273738
5002,KFC899 S. Sixth Avenue,899 S. Sixth Avenue,Wauchula,FL,27.53781311,-81.80940955
5003,KFC2525 South Military Trail,2525 South Military Trail,West Palm Beach,FL,26.64027638,-80.11279623
5004,KFC3045 North Military Trail,3045 North Military Trail,West Palm Beach,FL,26.72194936,-80.11075
5005,KFC4720 Broadway,4720 Broadway,West Palm Beach,FL,26.75400372,-80.05598293
5006,KFC980 North Military Trail,980 North Military Trail,West Palm Beach,FL,26.69114622,-80.11143069
5007,KFCMile Post 94,Mile Post 94,West Palm Beach,FL,26.633917,-80.174885
5008,"KFCMile Post 299, Florida Turnpike","Mile Post 299, Florida Turnpike",Wildwood,FL,28.78875073,-81.98695648
5009,KFC13320 W. Colonial Dr,13320 W. Colonial Dr,Winter Garden,FL,28.55090744,-81.58141714
5010,KFC3300 Daniels Road,3300 Daniels Road,Winter Garden,FL,28.52192367,-81.58771534
5011,"KFC401 Cypress Gardens Boulevard, S.E","401 Cypress Gardens Boulevard, S.E",Winter Haven,FL,28.00411293,-81.72308423
5012,KFC4250 Aloma Ave,4250 Aloma Ave,Winter Park,FL,28.61149008,-81.27952005
5013,KFC76106 Sidney Place,76106 Sidney Place,Yulee,FL,30.62017906,-81.6465386
5014,KFC5506 North Gall Boulevard,5506 North Gall Boulevard,Zephyrhills,FL,28.23750218,-82.18374331
5015,KFC5040 Cherokee Street,5040 Cherokee Street,Acworth,GA,34.0751928,-84.67685304
5016,KFC6760 Highway 92,6760 Highway 92,Acworth,GA,34.08766324,-84.57576916
5017,KFC1723 E Oglethorpe Blvd,1723 E Oglethorpe Blvd,Albany,GA,31.57097858,-84.10445161
5018,KFC2727 Dawson Rd,2727 Dawson Rd,Albany,GA,31.62074577,-84.22651202
5019,KFC400 Oglethorpe Avenue,400 Oglethorpe Avenue,Albany,GA,31.57525445,-84.15640501
5020,KFC502 S. Pierce Street,502 S. Pierce Street,Alma,GA,31.53813029,-82.46280644
5021,KFC10960 State Bridge Road,10960 State Bridge Road,Alpharetta,GA,34.04749665,-84.22388851
5022,KFC5150 Windward Parkway,5150 Windward Parkway,Alpharetta,GA,34.09294522,-84.27739453
5023,KFC102 Tripp St,102 Tripp St,Americus,GA,32.07288872,-84.21751783
5024,KFC710 E. Washington Avenue,710 E. Washington Avenue,Ashburn,GA,31.71015155,-83.64153045
5025,KFC2150 Barnett Shoals Road,2150 Barnett Shoals Road,Athens,GA,33.92159544,-83.34162674
5026,KFC3196 Atlanta Highway,3196 Atlanta Highway,Athens,GA,33.9404156,-83.45068681
5027,KFC23 Joseph E Lowery Blvd. SW,23 Joseph E Lowery Blvd. SW,Atlanta,GA,33.75412941,-84.41766155
5028,KFC2475 Bouldercrest Rd. SE,2475 Bouldercrest Rd. SE,Atlanta,GA,33.68874379,-84.31260053
5029,KFC2840 Greenbriar Pkwy. SW,2840 Greenbriar Pkwy. SW,Atlanta,GA,33.68764448,-84.49005354
5030,KFC3510 Cascade Rd. SW,3510 Cascade Rd. SW,Atlanta,GA,33.72294524,-84.504074
5031,KFC3604 Bakers Ferry Rd SW,3604 Bakers Ferry Rd SW,Atlanta,GA,33.75930012,-84.50580703
5032,KFC3901 Buford Hwy NE,3901 Buford Hwy NE,Atlanta,GA,33.85724754,-84.31260863
5033,KFC5245 Old National Hwy,5245 Old National Hwy,Atlanta,GA,33.61260968,-84.47223006
5034,KFC1816 Walton Way,1816 Walton Way,Augusta,GA,33.47554476,-81.99829084
5035,KFC2029 Windsor Springs Road,2029 Windsor Springs Road,Augusta,GA,33.40903509,-82.02589046
5036,KFC3425 Wrightsboro Road,3425 Wrightsboro Road,Augusta,GA,33.46797728,-82.07767223
5037,KFC1015 E. Shotwell St,1015 E. Shotwell St,Bainbridge,GA,30.90397127,-84.56281809
5038,KFC400 East Parker Street,400 East Parker Street,Baxley,GA,31.77692063,-82.3431579
5039,KFC369 Bracket Way,369 Bracket Way,Blairsville,GA,34.87253132,-83.9660589
5040,KFC155 U.S. Highway 27 Bypass,155 U.S. Highway 27 Bypass,Bremen,GA,33.69350858,-85.15340988
5041,KFC400 Warren Mason Highway,400 Warren Mason Highway,Brunswick,GA,31.21860366,-81.51998548
5042,KFC4368 Highway 20,4368 Highway 20,Buford,GA,34.09507201,-84.01183754
5043,KFC723 Highway 53,723 Highway 53,Calhoun,GA,34.47250179,-84.92236566
5044,KFC1855 Marietta Highway,1855 Marietta Highway,Canton,GA,34.22184099,-84.50482201
5045,KFC3750 Sixes Road,3750 Sixes Road,Canton,GA,34.17730214,-84.54941341
5046,KFC6113 Hickory Flat Highway,6113 Hickory Flat Highway,Canton,GA,34.17752601,-84.42253805
5047,KFC575 Bankhead Hwy,575 Bankhead Hwy,Carrollton,GA,33.58684919,-85.057947
5048,KFC255 Cherokee Place,255 Cherokee Place,Cartersville,GA,34.17190323,-84.78246128
5049,KFC1043 North Third Avenue,1043 North Third Avenue,Chatsworth,GA,34.78438086,-84.77099502
5050,KFC1801 South Lumpkin Road,1801 South Lumpkin Road,Columbus,GA,32.42051563,-84.95059257
5051,KFC1934 Manchester Expressway,1934 Manchester Expressway,Columbus,GA,32.5068835,-84.96330599
5052,KFC3100 Buena Vista Road,3100 Buena Vista Road,Columbus,GA,32.45445946,-84.944048
5053,KFC5615 Milgen Road,5615 Milgen Road,Columbus,GA,32.52180526,-84.88935472
5054,KFC6760 Veterans Parkway,6760 Veterans Parkway,Columbus,GA,32.54250344,-84.9540427
5055,KFC1675 Highway 138 SE,1675 Highway 138 SE,Conyers,GA,33.64611928,-84.01381124
5056,KFC2430 Salem Road SE,2430 Salem Road SE,Conyers,GA,33.62529175,-83.97662417
5057,KFC1504 E. 16th Avenue,1504 E. 16th Avenue,Cordele,GA,31.96122832,-83.75930606
5058,KFC1467 Highway 441 Bypass,1467 Highway 441 Bypass,Cornelia,GA,34.50994487,-83.5452943
5059,KFC6103 Highway 278 NW,6103 Highway 278 NW,Covington,GA,33.60518054,-83.87272535
5060,KFC695 Atlanta Rd,695 Atlanta Rd,Cumming,GA,34.18731895,-84.14321849
5061,KFC555 Dacula Road,555 Dacula Road,Dacula,GA,33.99991071,-83.90868264
5062,KFC1245 Merchants Drive,1245 Merchants Drive,Dallas,GA,33.91080649,-84.80067312
5063,KFC1519 W. Walnut Ave,1519 W. Walnut Ave,Dalton,GA,34.76071897,-84.9984632
5064,KFC13039 GA Highway 251,13039 GA Highway 251,Darien,GA,31.39917647,-81.45115542
5065,KFC2532 Wesley Chapel Rd,2532 Wesley Chapel Rd,Decatur,GA,33.71447016,-84.21576778
5066,KFC3555 Flat Shoals Rd,3555 Flat Shoals Rd,Decatur,GA,33.7040068,-84.27102544
5067,KFC3283 Northcrest Rd,3283 Northcrest Rd,Doraville,GA,33.88571972,-84.24792108
5068,KFC1002 North Peterson Street,1002 North Peterson Street,Douglas,GA,31.51858933,-82.85066089
5069,"KFCHighway 5, Market Square Shopping Ctr","Highway 5, Market Square Shopping Ctr",Douglasville,GA,33.72476524,-84.7632528
5070,KFC1630 Veterans Boulevard,1630 Veterans Boulevard,Dublin,GA,32.53621968,-82.93099089
5071,KFC2182 Highway 441 South,2182 Highway 441 South,Dublin,GA,32.48964072,-82.93354067
5072,KFC2080 Pleasant Hill Road,2080 Pleasant Hill Road,Duluth,GA,33.95657736,-84.13278849
5073,KFC1395 Virginia Ave,1395 Virginia Ave,East Point,GA,33.65921698,-84.43472478
5074,KFC1020 Indian Drive,1020 Indian Drive,Eastman,GA,32.18084765,-83.18003651
5075,KFC253 Elbert Street,253 Elbert Street,Elberton,GA,34.10881193,-82.86029271
5076,KFC205 Highway 314,205 Highway 314,Fayetteville,GA,33.46746323,-84.44963921
5077,KFC809 South Grant Street,809 South Grant Street,Fitzgerald,GA,31.70590724,-83.25295911
5078,KFC4845 Jonesboro Rd,4845 Jonesboro Rd,Forest Park,GA,33.62021155,-84.35207431
5079,KFC663 Battlefield Parkway,663 Battlefield Parkway,Fort Oglethorpe,GA,34.95442233,-85.25364645
5080,KFC210 N. Camilla Boulevard,210 N. Camilla Boulevard,Fort Valley,GA,32.55675261,-83.88465748
5081,KFC1904 Browns Bridge Road,1904 Browns Bridge Road,Gainesville,GA,34.28365507,-83.84943478
5082,KFC4402 Augusta Road,4402 Augusta Road,Garden City,GA,32.10544712,-81.15213026
5083,KFC1855 Grayson Highway,1855 Grayson Highway,Grayson,GA,33.90003996,-83.96185504
5084,KFC1410 North Expressway,1410 North Expressway,Griffin,GA,33.27002958,-84.29017458
5085,KFC202 Hill Street,202 Hill Street,Griffin,GA,33.24664616,-84.26371376
5086,KFC4040 Gateway Boulevard,4040 Gateway Boulevard,Grovetown,GA,33.47910305,-82.19602736
5087,KFC11325 Tara Blvd,11325 Tara Blvd,Hampton,GA,33.44613975,-84.32425732
5088,KFC4106 Windsor Spring Rd,4106 Windsor Spring Rd,Hephzibah,GA,33.3756183,-82.07254291
5089,KFC733 E. Oglethorpe Boulevard,733 E. Oglethorpe Boulevard,Hinesville,GA,31.85168867,-81.58216877
5090,KFC561 E Third Street,561 E Third Street,Jackson,GA,33.29454268,-83.96045212
5091,KFC4821 US Hwy 129 North,4821 US Hwy 129 North,Jefferson,GA,34.15192462,-83.64184777
5092,KFC995 S. First Street,995 S. First Street,Jesup,GA,31.60435687,-81.90683575
5093,KFC8687 Tara Blvd,8687 Tara Blvd,Jonesboro,GA,33.51819301,-84.36382717
5094,KFC1970 N Cobb Parkway,1970 N Cobb Parkway,Kennesaw,GA,34.00085033,-84.59185545
5095,KFC1364 East Boone Avenue,1364 East Boone Avenue,Kingsland,GA,30.78836962,-81.65325689
5096,KFC305 New Franklin Road,305 New Franklin Road,Lagrange,GA,33.04874176,-85.02885714
5097,KFC4776 Sugarloaf Parkway,4776 Sugarloaf Parkway,Lawrenceville,GA,33.95194368,-84.05063432
5098,KFC675 Georgia Highway 120,675 Georgia Highway 120,Lawrenceville,GA,33.96609031,-84.01003875
5099,KFC928 Buford Drive,928 Buford Drive,Lawrenceville,GA,33.98752113,-83.98454478
5100,KFC664 Thornton Road,664 Thornton Road,Lithia Springs,GA,33.78696155,-84.61689959
5101,KFC2848 Panola Road,2848 Panola Road,Lithonia,GA,33.70487076,-84.16973688
5102,KFC313 Tanger Blvd,313 Tanger Blvd,Locust Grove,GA,33.35209983,-84.12122683
5103,KFC4065 Highway 78,4065 Highway 78,Loganville,GA,33.84627801,-83.91188136
5104,"KFC981 Veterans Memorial Highway, S.W","981 Veterans Memorial Highway, S.W",Mableton,GA,33.81882183,-84.58254927
5105,KFC190 Tom Hill Sr. Boulevard,190 Tom Hill Sr. Boulevard,Macon,GA,32.89872159,-83.6891277
5106,KFC3837 Bloomfield Road,3837 Bloomfield Road,Macon,GA,32.81875127,-83.69751731
5107,KFC4030 Pio Nono Avenue,4030 Pio Nono Avenue,Macon,GA,32.79166619,-83.66840294
5108,KFC4475 Forsyth Road,4475 Forsyth Road,Macon,GA,32.87040149,-83.70184252
5109,KFC844 Shurling Drive,844 Shurling Drive,Macon,GA,32.85965787,-83.61075629
5110,KFC1971 Eatonton Highway,1971 Eatonton Highway,Madison,GA,33.55862135,-83.476245
5111,KFC1130 Powder Spring Road,1130 Powder Spring Road,Marietta,GA,33.92562322,-84.57314296
5112,KFC12 Cobb Pkwy. N,12 Cobb Pkwy. N,Marietta,GA,33.95158497,-84.52080981
5113,KFC2540 Delk Rd SE,2540 Delk Rd SE,Marietta,GA,33.92256095,-84.48037819
5114,KFC3480 Ernest W Barrett Pkwy SW,3480 Ernest W Barrett Pkwy SW,Marietta,GA,33.94470521,-84.62438467
5115,KFC1078 Highway 20-81,1078 Highway 20-81,McDonough,GA,33.43092475,-84.17852496
5116,KFC1135 South Lewis Street,1135 South Lewis Street,Metter,GA,32.37743711,-82.06244375
5117,KFC2337 N. Columbia Street,2337 N. Columbia Street,Milledgeville,GA,33.10798482,-83.25371603
5118,KFC1100 West Spring Street,1100 West Spring Street,Monroe,GA,33.79295459,-83.73147665
