id,name,lat,lon
restaurant_83680,"Popeyes 2960 C St Anchorage, Alaska 99503 - USA",61.193782,-149.887121
restaurant_84383,"Popeyes (Military Post Access Required) 5800 Westover Ave Anchorage, Alaska 99506 - USA",61.23565,-149.765287
restaurant_84195,"Popeyes (Military Post Access Required) 3703 B Oak St, Fort Wainwright, AK Fort Wainwright, Alaska 99703 - USA",64.825517,-147.648996
restaurant_237668,"Popeyes 1614 7th street south Clanton, Alabama 35045 - USA",32.819109,-86.608017
restaurant_83666,"Popeyes 1221 Highland Ave Selma, Alabama 36703 - USA",32.431823,-87.020355
restaurant_237665,"Popeyes Hwy 14 & I-65 Millbrook, Alabama 36054 - USA",32.493235,-86.40513
restaurant_83399,"Popeyes 1723 E Main St Prattville, Alabama 36066 - USA",32.460932,-86.424622
restaurant_83162,"Popeyes 3300 Pelham Pkwy Pelham, Alabama 35124 - USA",33.279642,-86.812055
restaurant_84863,"Popeyes 22526 Highway 216 Mccalla, Alabama 35111 - USA",33.279521,-87.091649
restaurant_84384,"Popeyes (Military Post Access Required) 355 S Kelly St Montgomery, Alabama 36112 - USA",32.374671,-86.354477
restaurant_82950,"Popeyes 41260 US Highway 280 Sylacauga, Alabama 35150 - USA",33.173854,-86.289178
restaurant_87933,"Popeyes 4900 US Hwy 231 Wetumpka Wetumpka, Alabama 36092 - USA",32.510341,-86.2131
restaurant_241292,"Popeyes 2000 Galleria Cir G Hoover, Alabama 35244 - USA",33.379277,-86.808704
restaurant_81857,"Popeyes 932 9th Ave N Bessemer, Alabama 35020 - USA",33.39688,-86.969372
restaurant_83543,"Popeyes 955 W South Blvd Montgomery, Alabama 36105 - USA",32.32586,-86.330296
restaurant_83771,"Popeyes 832 Ann St Montgomery, Alabama 36107 - USA",32.37041,-86.271386
restaurant_234688,"Popeyes TBD US Hwy 280 Harpersville, Alabama 35078 - USA",33.345115,-86.44017
restaurant_87932,"Popeyes 876 North East Blvd Montgomery, Alabama 36117 - USA",32.406685,-86.214441
restaurant_85231,"Popeyes 3501 Buttermilk Road Tuscaloosa, Alabama 35453 - USA",33.1757,-87.446404
restaurant_88589,"Popeyes East South Blvd. Montgomery, Alabama 36116 - USA",32.326594,-86.266842
restaurant_82888,"Popeyes 361 Palisades Blvd Birmingham, Alabama 35209 - USA",33.468271,-86.818961
restaurant_83675,"Popeyes 2797 Eastern Blvd Montgomery, Alabama 36117 - USA",32.344265,-86.222705
restaurant_81947,"Popeyes 2239 Bessemer Rd Birmingham, Alabama 35208 - USA",33.496048,-86.877259
restaurant_83998,"Popeyes 3712 McFarland Blvd E Tuscaloosa, Alabama 35405 - USA",33.174412,-87.525269
restaurant_240086,"Popeyes 9036 Eastchase Parkway Montgomery, Alabama 36117 - USA",32.362836,-86.139408
restaurant_82858,"Popeyes 1717 Finley Blvd Birmingham, Alabama 35204 - USA",33.540218,-86.827132
restaurant_83909,"Popeyes 2450 McFarland Blvd Northport, Alabama 35476 - USA",33.240986,-87.581194
restaurant_235680,"Popeyes Moody Pkwy & Markeeta Spur Rd Moody, Alabama 35004 - USA",33.572872,-86.518834
restaurant_90590,"Popeyes 375 Main Street Shorter, Alabama 36075 - USA",32.403427,-85.954675
restaurant_84460,"Popeyes 1845 Center Point Pkwy Center Point, Alabama 35215 - USA",33.635148,-86.683587
restaurant_85242,"Popeyes 824 East Battle Street Talladega, Alabama 35160 - USA",33.439575,-86.083587
restaurant_85208,"Popeyes 75246 Alabama 77 Lincoln, Alabama 35096 - USA",33.586695,-86.124632
restaurant_235258,"Popeyes 33 Red Tail Lane Tuskegee, Alabama 36083 - USA",32.4,-85.59
restaurant_234935,"Popeyes 2951 Highway 78 Jasper, Alabama 35501 - USA",33.841597,-87.241376
restaurant_84601,"Popeyes 1999 Opelika Rd Auburn, Alabama 36830 - USA",32.628854,-85.439632
restaurant_86690,"Popeyes 123 Colonial Dr. Oxford, Alabama 36203 - USA",33.613122,-85.788267
restaurant_81828,"Popeyes 1925 Quintard Ave Anniston, Alabama 36201 - USA",33.670166,-85.826445
restaurant_83873,"Popeyes 1203 Highway 231 S Troy, Alabama 36081 - USA",31.782303,-85.954031
restaurant_85050,"Popeyes 426 Al Hwy 69 South Hanceville, Alabama 35077 - USA",34.050826,-86.872523
restaurant_81910,"Popeyes 3339 Rainbow Dr Rainbow City, Alabama 35906 - USA",33.958172,-86.038563
restaurant_85061,"Popeyes 1724 W Grand Ave Gadsden, Alabama 35904 - USA",33.995566,-86.082545
restaurant_89295,"Popeyes 2802 20th Avenue Valley, Alabama 36854 - USA",32.84715,-85.183878
restaurant_81746,"Popeyes 406 E Meighan Blvd Gadsden, Alabama 35903 - USA",34.00986,-85.987752
restaurant_86711,"Popeyes 5901 AL Highway 157 Cullman, Alabama 35058 - USA",34.206154,-86.873501
restaurant_239994,"Popeyes 119 compromise CT Phenix City, Alabama 36870 - USA",32.468681,-85.080304
restaurant_87931,"Popeyes 1736 HWY 431 Boaz, Alabama 35957 - USA",34.210622,-86.15433
restaurant_237660,"Popeyes 461 Western Bypass Andalusia, AL, Alabama 36420 - USA",31.30604,-86.49865
restaurant_90906,"Popeyes 3540 US HWY 431N Phenix City, Alabama 36870 - USA",32.494936,-85.039535
restaurant_82069,"Popeyes 1535 Highway 45 N Columbus, Mississippi 39705 - USA",33.512932,-88.434487
restaurant_235603,"Popeyes 4011 North College Ave Jackson, Alabama 36545 - USA",31.554679,-87.878046
restaurant_237948,"Popeyes 1511 Lafayette Parkway Lagrange, Georgia 30241 - USA",33.04287,-84.97874
restaurant_90595,"Popeyes 8835 US Hwy 431 Albertville, Alabama 35951 - USA",34.284914,-86.230972
restaurant_84416,"Popeyes 4501 River Rd Columbus, Georgia 31904 - USA",32.507596,-84.982138
restaurant_82083,"Popeyes 2340 Wynnton Rd Columbus, Georgia 31906 - USA",32.470951,-84.957179
restaurant_84945,"Popeyes (Military Post Access Required) 2650 Dixie Road Fort Benning, Georgia 31905 - USA",32.352189,-84.956014
restaurant_240741,"Popeyes 4236 Buena Vista Rd Columbus, Georgia 31907 - USA",32.464323,-84.9213
restaurant_82289,"Popeyes 700 Bonita Lakes Dr Meridian, Mississippi 39301 - USA",32.367119,-88.668931
restaurant_85630,"Popeyes 1517 South HIghway 27 Carrollton, Georgia 30117 - USA",33.549455,-85.074063
restaurant_240037,"Popeyes 2003 N Hills St Meridian, Mississippi 39305 - USA",32.409378,-88.698269
restaurant_240679,"Popeyes 5825 FELLOW ST, Columbus, Georgia 31907 - USA",32.542822,-84.874462
restaurant_90633,"Popeyes 95 US HWY 27 Bremen, Georgia 30110 - USA",33.689308,-85.150002
restaurant_235638,"Popeyes 1314 South US Hwy 231 Ozark, Alabama 36360 - USA",31.444975,-85.655122
restaurant_82369,"Popeyes 828 Highway 19 N Meridian, Mississippi 39307 - USA",32.365438,-88.729287
restaurant_84950,"Popeyes 707 E Boll Weevil Cir Enterprise, Alabama 36330 - USA",31.325505,-85.833818
restaurant_85097,"Popeyes 487 South Boulevard Brewton, Alabama 36426 - USA",31.099242,-87.079056
restaurant_84153,"Popeyes (Military Post Access Required) Fort Rucker Food Court Fort Rucker, Alabama 36362 - USA",31.336481,-85.71262
restaurant_86605,"Popeyes 5489 Highway 45 ALT South West Point, Mississippi 39773 - USA",33.586,-88.659647
restaurant_90691,"Popeyes 302 N Main Street Cedartown, Georgia 30125 - USA",34.01762,-85.25331
restaurant_85423,"Popeyes 1804 S. Main St. Atmore, Alabama 36502 - USA",31.107449,-87.476931
restaurant_84379,"Popeyes 1827 Beltline Rd SW Decatur, Alabama 35601 - USA",34.575153,-87.017445
restaurant_239745,"Popeyes 100 Hickory Level Road Villa Rica, Georgia 30180 - USA",33.71729,-84.93927
restaurant_82805,"Popeyes 814A Highway 12 W Starkville, Mississippi 39759 - USA",33.448063,-88.842329
restaurant_85658,"Popeyes 1435 Hwy 34 Newnan, Georgia 30265 - USA",33.398679,-84.731637
restaurant_240204,"Popeyes 1502 Glenn Blvd SW Fort Payne, Alabama 35968 - USA",34.437207,-85.752765
restaurant_89298,"Popeyes 1304 Azalea Dr. Waynesboro, Mississippi 39367 - USA",31.687192,-88.631843
restaurant_86734,"Popeyes (Military Post Access Required) 3220 Acton Dr Huntsville, Alabama 35898 - USA",34.695902,-86.631886
restaurant_87480,"Popeyes 100 Felton Dr. Rockmart, Georgia 30153 - USA",34.010723,-85.039442
restaurant_240594,"Popeyes 1502 W Magnolia Ave Geneva, Alabama 36340 - USA",31.049247,-85.898045
restaurant_237276,"Popeyes 95 Fischer Crossing Boulevard Road Sharpsburg, Georgia 30277 - USA",33.397983,-84.621078
restaurant_239662,"Popeyes West Main St Dothan, Alabama 36301 - USA",31.239024,-85.466258
restaurant_87936,"Popeyes 5946 Hwy. 72 E Gurley, Alabama 35748 - USA",34.699246,-86.385629
restaurant_84807,"Popeyes 3354 Montgomery Hwy Dothan, Alabama 36303 - USA",31.254768,-85.429801
restaurant_87979,"Popeyes 3202 Broad St. Scottsboro, Alabama 35769 - USA",34.631369,-86.04812
restaurant_82002,"Popeyes 3820 University Dr NW Huntsville, Alabama 35816 - USA",34.735697,-86.626824
restaurant_84542,"Popeyes 9541 Highway 5 Douglasville, Georgia 30135 - USA",33.724,-84.762891
restaurant_82582,"Popeyes 1019 W Beacon St Philadelphia, Mississippi 39350 - USA",32.76941,-89.130973
restaurant_84981,"Popeyes 7064 US 72 Huntsville, Alabama 35806 - USA",34.754974,-86.710996
restaurant_90632,"Popeyes 2436 Shorter Ave Rome, Georgia 30165 - USA",34.272272,-85.236283
restaurant_85388,"Popeyes 3234 N Memorial Parkway Huntsville, Alabama 35810 - USA",34.768196,-86.586349
restaurant_242156,"Popeyes 103 Lexington Cir Peachtreecity, Georgia 30269 - USA",33.421636,-84.559521
restaurant_84704,"Popeyes 5753 Fairburn Rd Douglasville, Georgia 30134 - USA",33.75177,-84.72245
restaurant_241467,"Popeyes 1603 Turner McCall Blvd Rome, Georgia 30161 - USA",34.245125,-85.160858
restaurant_86524,"Popeyes 550 US Hwy 72 West, Athens, Alabama 35611 - USA",34.790512,-86.974968
restaurant_87838,"Popeyes 2231 Ross Clark Circle Dothan, Alabama 36301 - USA",31.191165,-85.405087
restaurant_84573,"Popeyes 5329 Wendy Bagwell Pkwy Hiram, Georgia 30141 - USA",33.887183,-84.739692
restaurant_85485,"Popeyes 4750 Jonesboro Road Union City, Georgia 30291 - USA",33.569233,-84.542546
restaurant_84638,"Popeyes 608 Thornton Rd Lithia Springs, Georgia 30122 - USA",33.789349,-84.621697
restaurant_241602,"Popeyes 1013 US-19 North Thomaston, Georgia 30286 - USA",32.92038,-84.334587
restaurant_83859,"Popeyes 242 Banks Xing Fayetteville, Georgia 30214 - USA",33.469583,-84.446637
restaurant_86688,"Popeyes 3870 Ferdon Blvd. Crestview, Florida 32536 - USA",30.72108,-86.569783
restaurant_239871,"Popeyes 201 McMeans Ave Bay Minette, Alabama 36507 - USA",30.87912,-87.784361
restaurant_242136,"Popeyes 8610 Dallas Acworth Hwy Dallas, Georgia 30132 - USA",34.008758,-84.75615
restaurant_84691,"Popeyes 6125 Old National Hwy College Park, Georgia 30349 - USA",33.58784,-84.46972
restaurant_84105,"Popeyes 3519 Camp Creek Pkwy Atlanta, Georgia 30344 - USA",33.65559,-84.50054
restaurant_83108,"Popeyes 1830 E West Connector Austell, Georgia 30106 - USA",33.854496,-84.606454
restaurant_82538,"Popeyes 6077 Mableton Pkwy SW Mableton, Georgia 30126 - USA",33.80586,-84.56925
restaurant_82209,"Popeyes 1701 S Gloster St Tupelo, Mississippi 38801 - USA",34.219102,-88.719462
restaurant_82581,"Popeyes 1703 Florence Blvd Florence, Alabama 35630 - USA",34.822494,-87.651735
restaurant_81758,"Popeyes 6717 Highway 85 Riverdale, Georgia 30274 - USA",33.571569,-84.413104
restaurant_82485,"Popeyes 11700 Spine Road Atlanta, GA, Georgia 30320 - USA",33.640706,-84.444419
restaurant_82746,"Popeyes 9700 Spine Road Atlanta, GA, Georgia 30320 - USA",33.639836,-84.435858
restaurant_86487,"Popeyes 3349 MLK Jr Dr Atlanta, Georgia 30331 - USA",33.754888,-84.497335
restaurant_84841,"Popeyes 6000 South Terminal Pkwy Atlanta, Georgia 30320 - USA",33.639004,-84.429363
restaurant_84930,"Popeyes 1411 Georgia Highway 16 W Griffin, Georgia 30223 - USA",33.247922,-84.287628
restaurant_90636,"Popeyes 603 Martin Luther King Jr Drive Cartersville, Georgia 30121 - USA",34.176281,-84.785422
restaurant_241452,"Popeyes 2120 Lovejoy Road Lovejoy, Georgia 30228 - USA",33.441992,-84.322895
restaurant_82816,"Popeyes 6553 Tara Blvd Jonesboro, Georgia 30236 - USA",33.5754,-84.372668
restaurant_239744,"Popeyes 1101 Powder Springs St Marietta, Georgia 30064 - USA",33.926235,-84.571361
restaurant_84408,"Popeyes 3350 S Cobb Dr SE Smyrna, Georgia 30080 - USA",33.871715,-84.529716
restaurant_82737,"Popeyes 839 Cleveland Avenue SW Atlanta, Georgia 30315 - USA",33.681661,-84.416174
restaurant_81753,"Popeyes 610 Cascade Ave SW Atlanta, Georgia 30310 - USA",33.738278,-84.434477
restaurant_86549,"Popeyes 1430 Barrett Pkwy Kennesaw, Georgia 30152 - USA",33.995582,-84.592362
restaurant_237962,"Popeyes 3462 Baker Road Acworth, Georgia 30101 - USA",34.07632,-84.65148
restaurant_242032,"Popeyes 6185 Jonesboro Rd, Morrow, Georgia 30260 - USA",33.585844,-84.339477
restaurant_81757,"Popeyes 515 Lee St SW Atlanta, Georgia 30310 - USA",33.740906,-84.414497
restaurant_88017,"Popeyes 4538 US 90 West Pace, Florida 32571 - USA",30.603322,-87.134438
restaurant_82905,"Popeyes 981 Cassville White Rd NE Cartersville, Georgia 30121 - USA",34.27397,-84.807763
restaurant_83872,"Popeyes 159 Cobb Pkwy S Marietta, Georgia 30060 - USA",33.948327,-84.518599
restaurant_82197,"Popeyes 2691 Windy Hill Rd SE Marietta, Georgia 30067 - USA",33.901431,-84.476713
restaurant_84703,"Popeyes 1211 Moreland Ave SE Atlanta, Georgia 30316 - USA",33.721537,-84.349803
restaurant_82090,"Popeyes 2247 Highway 15 N Laurel, Mississippi 39440 - USA",31.719728,-89.148114
restaurant_81731,"Popeyes 683 Boulevard NE Atlanta, Georgia 30308 - USA",33.773211,-84.370758
restaurant_81737,"Popeyes 336 Leontyne Price Blvd. Laurel, Mississippi 39440 - USA",31.687699,-89.136219
restaurant_84004,"Popeyes 5557 N Henry Blvd Stockbridge, Georgia 30281 - USA",33.552537,-84.258955
restaurant_86463,"Popeyes 2990 Anvil Block Road Ellenwood, Georgia 30294 - USA",33.634305,-84.291706
restaurant_81847,"Popeyes 1030 Saraland Blvd S Saraland, Alabama 36571 - USA",30.796886,-88.07158
restaurant_90594,"Popeyes 1301 Stanley Way Saraland, AL, Alabama 36571 - USA",30.802963,-88.107419
restaurant_84929,"Popeyes 908 Old Industrial Boulevard Mcdonough, Georgia 30253 - USA",33.4295,-84.17928
restaurant_239746,"Popeyes 9490 Alabama Road (GA-92) Woodstock, Georgia 30188 - USA",34.08534,-84.53119
restaurant_84943,"Popeyes 683 Hwy 53 East SE Calhoun, Georgia 30701 - USA",34.474077,-84.924053
restaurant_239255,"Popeyes 514 HWY 35 S Carthage, Mississippi 39051 - USA",32.730589,-89.534719
restaurant_82078,"Popeyes 350 E Nine Mile Rd Pensacola, Florida 32514 - USA",30.533327,-87.258554
restaurant_83216,"Popeyes 4555 Roswell Rd Atlanta, Georgia 30342 - USA",33.87953,-84.379355
restaurant_83896,"Popeyes 1270 Highway 35 S Forest, Mississippi 39074 - USA",32.34124,-89.482583
restaurant_240065,"Popeyes 1243 Main St Chipley, Florida 32428 - USA",30.765299,-85.54064
restaurant_242127,"Popeyes 1145 lamar Blvd E Americus, Georgia 31709 - USA",32.071115,-84.217793
restaurant_241303,"Popeyes Mill Lane - Hwy 181 Daphne, Alabama 36526 - USA",30.672757,-87.852598
restaurant_240339,"Popeyes 2850 W 9 Mile Rd Pensacola, Florida 32534 - USA",30.534967,-87.326538
restaurant_83774,"Popeyes 2578 Candler Rd Decatur, Georgia 30032 - USA",33.714609,-84.272405
restaurant_81996,"Popeyes 3506 Memorial Dr Decatur, Georgia 30032 - USA",33.754116,-84.269668
restaurant_81658,"Popeyes 2767 Clairmont Rd NE Atlanta, Georgia 30329 - USA",33.837898,-84.311597
restaurant_235012,"Popeyes 6401 North 9th Ave Pensacola, Florida 32504 - USA",30.490245,-87.19582
restaurant_239759,"Popeyes 3000 St Stephens Rd Mobile, Alabama 36612 - USA",30.746324,-88.111481
restaurant_234689,"Popeyes 1432 Huntsville Hwy Fayetteville, Tennessee 37334 - USA",35.128037,-86.565565
restaurant_82520,"Popeyes (Military Post Access Required) Bldg 1757 Eglin Afb, Florida 32542 - USA",30.466051,-86.528479
restaurant_84814,"Popeyes 354 Highway 12 E Kosciusko, Mississippi 39090 - USA",33.066481,-89.583688
restaurant_83577,"Popeyes 2665 Wesley Chapel Rd Decatur, Georgia 30034 - USA",33.709695,-84.218431
restaurant_81699,"Popeyes 750 Government St Mobile, Alabama 36602 - USA",30.687271,-88.051598
restaurant_86532,"Popeyes 7681 Moffett Road Semmes, Alabama 36575 - USA",30.75918,-88.223048
restaurant_84954,"Popeyes 3896 Lavista Rd Tucker, Georgia 30084 - USA",33.84404,-84.25818
restaurant_85453,"Popeyes 2825 Springhill Avenue Mobile, Alabama 36607 - USA",30.697971,-88.10795
restaurant_238005,"Popeyes 5064 Memorial Drive Stone Mountain, Georgia 30083 - USA",33.79489,-84.2269
restaurant_86651,"Popeyes 4511 Saufley Field Rd Pensacola, Florida 32526 - USA",30.460697,-87.302342
restaurant_237856,"Popeyes 5220 Buford Highway Doraville, Georgia 30340 - USA",33.89563,-84.28347
restaurant_85455,"Popeyes 1118 North 2nd Street Booneville, Mississippi 38829 - USA",34.67781,-88.56002
restaurant_81695,"Popeyes 3411 N Pace Blvd Pensacola, Florida 32505 - USA",30.447889,-87.240233
restaurant_83104,"Popeyes 3001 Panola Rd Lithonia, Georgia 30038 - USA",33.700066,-84.173098
restaurant_86723,"Popeyes (Military Post Access Required) 112 Lielmanis Ave Hurlburt Field, Florida 32544 - USA",30.41753,-86.68173
restaurant_81747,"Popeyes 1966 Government St Mobile, Alabama 36606 - USA",30.676268,-88.086796
restaurant_83576,"Popeyes 4815 Redan Rd Stone Mountain, Georgia 30088 - USA",33.76089,-84.195184
restaurant_84769,"Popeyes 1511 US Highway 98 Daphne, Alabama 36526 - USA",30.600047,-87.898842
restaurant_81774,"Popeyes 52 Northwest Eglin Parkway Fort Walton Beach, Florida 32548 - USA",30.415448,-86.606182
restaurant_81721,"Popeyes 814 E Cervantes St Pensacola, Florida 32501 - USA",30.4233,-87.20811
restaurant_83565,"Popeyes 10777 Alpharetta Hwy Roswell, Georgia 30076 - USA",34.041851,-84.341179
restaurant_81697,"Popeyes 4009 Airport Blvd Mobile, Alabama 36608 - USA",30.675717,-88.149242
restaurant_238464,"Popeyes Mountain Industrial Blvd & Greer Circle Stone Mountain, Georgia 30083 - USA",33.831399,-84.198303
restaurant_86633,"Popeyes 540 Riverstone Parkway Canton, Georgia 30114 - USA",34.244056,-84.486975
restaurant_82053,"Popeyes 3189 Tucker Norcross Rd Tucker, Georgia 30084 - USA",33.882797,-84.21933
restaurant_239400,"Popeyes 3716 Gulf Breeze Pkwy Gulf Breeze, Florida 32563 - USA",30.390004,-87.068475
restaurant_84683,"Popeyes 11287 Old 63 S Lucedale, Mississippi 39452 - USA",30.907288,-88.598329
restaurant_83790,"Popeyes 7050 Jimmy Carter Blvd Norcross, Georgia 30092 - USA",33.947822,-84.240956
restaurant_81809,"Popeyes 711 N Navy Blvd Pensacola, Florida 32507 - USA",30.400164,-87.277978
restaurant_85454,"Popeyes 570 Schillinger Road Mobile, Alabama 36695 - USA",30.67848,-88.22606
restaurant_83284,"Popeyes 3343 Old Milton Pkwy Alpharetta, Georgia 30005 - USA",34.06769,-84.263118
restaurant_83978,"Popeyes 1638 Highway 138 SE Conyers, Georgia 30013 - USA",33.646842,-84.012545
restaurant_83297,"Popeyes 4865 Stone Mountain Hwy Lilburn, Georgia 30047 - USA",33.82719,-84.09695
restaurant_81730,"Popeyes 5413 Highway 90 W Mobile, Alabama 36619 - USA",30.589649,-88.168919
restaurant_84133,"Popeyes 2112 Highway 71 Marianna, Florida 32448 - USA",30.71895,-85.183789
restaurant_83795,"Popeyes 31 Byrd Blvd Petal, Mississippi 39465 - USA",31.369844,-89.225154
restaurant_87110,"Popeyes 4280 Pleasant Hill Rd. Duluth, Georgia 30096 - USA",34.006076,-84.17425
restaurant_85218,"Popeyes 110 Highway 30 West New Albany, Mississippi 38652 - USA",34.498796,-89.026539
restaurant_85055,"Popeyes 1247 N Glenwood Avenue Dalton, Georgia 30721 - USA",34.793229,-84.962612
restaurant_82268,"Popeyes 1635 Pleasant Hill Rd Duluth, Georgia 30096 - USA",33.946104,-84.126424
restaurant_85045,"Popeyes 1710 S McKenzie St Foley, Alabama 36535 - USA",30.387365,-87.683963
restaurant_241569,"Popeyes 1050 Ridgeland Pkwy Alpharetta, Georgia 30004 - USA",34.120387,-84.223254
restaurant_83077,"Popeyes 3352 Broad St Chattanooga, Tennessee 37409 - USA",35.015664,-85.322846
restaurant_82710,"Popeyes 1401 S Slappey Blvd Albany, Georgia 31701 - USA",31.561086,-84.176884
restaurant_238452,"Popeyes 2725 Farmstead Way Suwanee, Georgia 30042 - USA",34.09148,-84.17079
restaurant_84794,"Popeyes 1202 S Cass St Corinth, Mississippi 38834 - USA",34.921197,-88.516599
restaurant_85064,"Popeyes 6105 Ringgold Road Eastridge, Tennessee 37412 - USA",34.990387,-85.214934
restaurant_86585,"Popeyes 1860 Highway 53 West Jasper, Georgia 30143 - USA",34.465549,-84.461966
restaurant_82343,"Popeyes 2330 Ronald Reagan Pkwy Snellville, Georgia 30078 - USA",33.872917,-84.016014
restaurant_241364,"Popeyes 5590 Thomaston Rd Macon, Macon, Georgia 31220 - USA",32.833798,-83.744669
restaurant_239870,"Popeyes 501 North Highway 49 Byron, Georgia 31008 - USA",32.663668,-83.739395
restaurant_238006,"Popeyes 5945 Bethelview Road Cumming, Georgia 30040 - USA",34.165383,-84.176842
restaurant_86682,"Popeyes 6623 US Hwy 49 Hattiesburg, Mississippi 39401 - USA",31.353617,-89.343651
restaurant_86767,"Popeyes 3248 Highway 278 Covington, Georgia 30014 - USA",33.602492,-83.855284
restaurant_83103,"Popeyes 5900 Hwy 49 South Hattiesburg, Mississippi 39401 - USA",31.309742,-89.31844
restaurant_86686,"Popeyes 1508 Sam Nunn Boulevaard Perry, Georgia 31069 - USA",32.474039,-83.74589
restaurant_85593,"Popeyes 3190 US HIghway 49 Collins, Mississippi 39428 - USA",31.631983,-89.554894
restaurant_241606,"Popeyes 3980 Northside Dr Macon Macon, Georgia 31210 - USA",32.8982,-83.701767
restaurant_84469,"Popeyes 290 Grayson Hwy Lawrenceville, Georgia 30046 - USA",33.9448,-83.98424
restaurant_82804,"Popeyes 3246 Mercer University Dr Macon, Georgia 31204 - USA",32.822365,-83.683527
restaurant_83285,"Popeyes 985 Market Place Blvd Cumming, Georgia 30041 - USA",34.184391,-84.132279
restaurant_82218,"Popeyes 5034 Hwy 98 W Hattiesburg, Mississippi 39402 - USA",31.322025,-89.371107
restaurant_87987,"Popeyes 716 Lake Joy Rd. Warner Robins, Georgia 31088 - USA",32.553786,-83.690758
restaurant_85615,"Popeyes 9201 Grand Bay Wilmer Road Grand Bay, Alabama 36541 - USA",30.498467,-88.33363
restaurant_85491,"Popeyes 4428 Hwy 58 Chattanooga, Tennessee 37416 - USA",35.083834,-85.201119
restaurant_84522,"Popeyes 1599 Simpson Highway 49 Magee, Mississippi 39111 - USA",31.867974,-89.743493
restaurant_235634,"Popeyes 2300 Watson Blvd Warner Robins, Georgia 31088 - USA",32.618692,-83.661223
restaurant_235214,"Popeyes 290 Lee Byrd Rd Loganville, Georgia 30052 - USA",33.833565,-83.881722
restaurant_82714,"Popeyes 1515 E Union St Vienna, Georgia 31092 - USA",32.087057,-83.765848
restaurant_87109,"Popeyes Nelson Brogdon Blvd (GA Hwy 20) Buford, Georgia 30153 - USA",34.098171,-84.015038
restaurant_242060,"Popeyes 2925 Buford Dr Suite 1605 Buford GA, Georgia 30519 - USA",34.064705,-83.984115
restaurant_82492,"Popeyes 744 Russell Pkwy Warner Robins, Georgia 31088 - USA",32.594361,-83.63611
restaurant_82716,"Popeyes 742 Shurling Dr Macon, Georgia 31211 - USA",32.860034,-83.612469
restaurant_84029,"Popeyes 747 Sunset Dr Grenada, Mississippi 38901 - USA",33.768673,-89.811333
restaurant_238174,"Popeyes 1414 Tallahassee Hwy Bainbridge, Georgia 39819 - USA",30.885729,-84.566027
restaurant_87978,"Popeyes 1101 N Main St. Shelbyville, Tennessee 37160 - USA",35.498403,-86.458241
restaurant_84653,"Popeyes (Military Post Access Required) 982 Macon St Warner Robins, Georgia 31098 - USA",32.598049,-83.581976
restaurant_89430,"Popeyes 105 Lite-N-Tie Rd. Gray, Georgia 31032 - USA",32.99842,-83.554607
restaurant_878331,"Popeyes 108 Pine Needle Way Flowood, Mississippi 39232 - USA",32.355722,-90.021669
restaurant_82028,"Popeyes 1501 Ohio Ave Lynn Haven, Florida 32444 - USA",30.235784,-85.648534
restaurant_82194,"Popeyes 1418 W Peace St Canton, Mississippi 39046 - USA",32.60805,-90.0652
restaurant_82579,"Popeyes 1410 W Government St Brandon, Mississippi 39042 - USA",32.284194,-90.019184
restaurant_82620,"Popeyes 2624 West Jackson Avenue Oxford, Mississippi 38655 - USA",34.361204,-89.569695
restaurant_237667,"Popeyes 429 Power Center Drive Dawsonville, Georgia 30534 - USA",34.35888,-84.04192
restaurant_84168,"Popeyes 955 E Spring St Monroe, Georgia 30655 - USA",33.801438,-83.700753
restaurant_85207,"Popeyes 2711 Highway 231 North Panama City, Florida 32405 - USA",30.201436,-85.624636
restaurant_83387,"Popeyes 1113 Frontage Dr E Wiggins, Mississippi 39577 - USA",30.842129,-89.142162
restaurant_81969,"Popeyes 1302 W Hwy 98 Panama City, Florida 32401 - USA",30.175554,-85.680802
restaurant_82360,"Popeyes 1061 Highway 51 North Madison, Mississippi 39110 - USA",32.463786,-90.110623
restaurant_81930,"Popeyes 1074 E County Line Rd Ridgeland, Mississippi 39157 - USA",32.399798,-90.135275
restaurant_238494,"Popeyes 3474 Winder Highway Flowery Branch, Georgia 30542 - USA",34.21645,-83.86166
restaurant_89342,"Popeyes 823 Nashville Hwy Columbia, Tennessee 38401 - USA",35.629314,-87.027033
restaurant_84152,"Popeyes 126 E May St Winder, Georgia 30680 - USA",33.987076,-83.715982
restaurant_81728,"Popeyes 2249 Denny Ave Pascagoula, Mississippi 39567 - USA",30.371448,-88.540595
restaurant_81698,"Popeyes 5351 I-55 N Jackson, Mississippi 39206 - USA",32.371924,-90.149426
restaurant_81811,"Popeyes 405 Riverwind Dr Pearl, Mississippi 39208 - USA",32.267863,-90.136281
restaurant_240158,"Popeyes GA Highway 53 Braselton, Georgia 30517 - USA",34.121075,-83.76383
restaurant_82162,"Popeyes 1176 Highway 49 S Richland, Mississippi 39218 - USA",32.215577,-90.152362
restaurant_82650,"Popeyes 2021 Eatonton Rd Madison, Georgia 30650 - USA",33.55172,-83.475065
restaurant_81761,"Popeyes 821 Jesse Jewell Pkwy SW Gainesville, Georgia 30501 - USA",34.29112,-83.831
restaurant_86584,"Popeyes 1302 West Jefferson Street Quincy, Florida 32351 - USA",30.588366,-84.592893
restaurant_82707,"Popeyes 100 E Walnut St Eatonton, Georgia 31024 - USA",33.32438,-83.38681
restaurant_241609,"Popeyes 30 Cook St Blue Ridge, Georgia 30513 - USA",34.871249,-84.325628
restaurant_240961,"Popeyes 397 US 84 Cairo, Georgia 39828 - USA",30.884855,-84.203144
restaurant_82866,"Popeyes 2408 Bienville Blvd Ocean Springs, Mississippi 39564 - USA",30.415213,-88.801797
restaurant_82092,"Popeyes 3085 Terry Rd Jackson, Mississippi 39212 - USA",32.260521,-90.221223
restaurant_82526,"Popeyes 2505 Highway 80 W Jackson, Mississippi 39204 - USA",32.291656,-90.229692
restaurant_240940,"Popeyes 938 US-82 W Greenwood, Mississippi 38930 - USA",33.5256,-90.2055
restaurant_82142,"Popeyes 4725 Clinton Blvd Jackson, Mississippi 39209 - USA",32.328105,-90.251608
restaurant_82766,"Popeyes 619 Highway 7 S Holly Springs, Mississippi 38635 - USA",34.752837,-89.45217
restaurant_81900,"Popeyes 4337 Robinson St Jackson, Mississippi 39209 - USA",32.300652,-90.258218
restaurant_86527,"Popeyes 10508 D'Iberville Blvd D'Iberville, Mississippi 39540 - USA",30.440442,-88.89703
restaurant_85130,"Popeyes 2108 Wall Street Spring Hill, Tennessee 37174 - USA",35.767112,-86.91824
restaurant_82272,"Popeyes 5583 I-55 S Byram, Mississippi 39272 - USA",32.1856,-90.258281
restaurant_84345,"Popeyes (Military Post Access Required) 405 Meadows St Biloxi, Mississippi 39534 - USA",30.408827,-88.911999
restaurant_81782,"Popeyes 848 Highway 98 Bypass Columbia, Mississippi 39429 - USA",31.238971,-89.816652
restaurant_238774,"Popeyes 2401 N Columbia St Milledgeville, Georgia 31061 - USA",33.110095,-83.254876
restaurant_82388,"Popeyes 485 Springridge Rd Clinton, Mississippi 39056 - USA",32.323884,-90.325249
restaurant_82464,"Popeyes 671 Highway 6 E Batesville, Mississippi 38606 - USA",34.310329,-89.933387
restaurant_84985,"Popeyes 1720 Carson Dr Yazoo City, Mississippi 39194 - USA",32.86761,-90.393579
restaurant_83039,"Popeyes 2431 Pass Rd Biloxi, Mississippi 39531 - USA",30.401223,-88.978518
restaurant_241084,"Popeyes Murfreesboro, Tennessee 37127 - USA",35.808634,-86.398413
restaurant_85433,"Popeyes 3160 Atlanta Highway Athens, Georgia 30606 - USA",33.941831,-83.446179
restaurant_82879,"Popeyes 12152 Highway 49 Gulfport, Mississippi 39503 - USA",30.461008,-89.10058
restaurant_84372,"Popeyes 724 Memorial Blvd Murfreesboro, Tennessee 37129 - USA",35.852473,-86.396476
restaurant_81759,"Popeyes 1125 Prince Ave Athens, Georgia 30606 - USA",33.961929,-83.395716
restaurant_83119,"Popeyes 26174 Highway 27 Crystal Springs, Mississippi 39059 - USA",32.012769,-90.355888
restaurant_81860,"Popeyes 2420 25th Ave Gulfport, Mississippi 39501 - USA",30.380623,-89.09224
restaurant_878515,"Popeyes 16th Street & Oak Street Eastman, Georgia 31023 - USA",32.206621,-83.187675
restaurant_82747,"Popeyes 2525 E Pinetree Blvd Thomasville, Georgia 31792 - USA",30.85374,-83.951789
restaurant_86706,"Popeyes 130 McClung Road Athens, Georgia 30601 - USA",33.997268,-83.337039
restaurant_86591,"Popeyes 30463 US-441 Commerce, Georgia 30529 - USA",34.260194,-83.465039
restaurant_90638,"Popeyes 37 Bob Head Street Blairsville, Georgia 30512 - USA",34.87691,-83.96017
restaurant_82117,"Popeyes 3511 Thomasville Rd Tallahassee, Florida 32309 - USA",30.507982,-84.248314
restaurant_237854,"Popeyes 28061 Hwy 28 Hazlehurst, Mississippi 39083 - USA",31.875389,-90.4044
restaurant_84527,"Popeyes 550 Enon Springs Rd E Smyrna, Tennessee 37167 - USA",35.973217,-86.495508
restaurant_81858,"Popeyes 491 W Tennessee St Tallahassee, Florida 32301 - USA",30.444414,-84.288073
restaurant_81644,"Popeyes 813 Lake Bradford Rd Tallahassee, Florida 32304 - USA",30.433085,-84.301889
restaurant_82921,"Popeyes 396 E. Main Street Senatobia, Mississippi 38668 - USA",34.619946,-89.955649
restaurant_241127,"Popeyes 121 Charter Place LaVergne, Tennessee 37086 - USA",35.992029,-86.596019
restaurant_82860,"Popeyes 13011 Old Hickory Blvd Antioch, Tennessee 37013 - USA",36.01473,-86.618471
restaurant_86704,"Popeyes 525 Old Historic US-441 Cornelia, Georgia 30531 - USA",34.543941,-83.545948
restaurant_86725,"Popeyes 2996 Apalachee Pkwy Tallahassee, Florida 32301 - USA",30.427773,-84.228143
restaurant_90603,"Popeyes 3550 Murfreesboro Pike Antioch, Tennessee 37013 - USA",36.051993,-86.615663
restaurant_81780,"Popeyes 200 S Royal Jackson, Tennessee 38301 - USA",35.613104,-88.813149
restaurant_237878,"Popeyes 1101 Brookhaven Drive Dublin, Georgia 31021 - USA",32.54601,-82.93667
restaurant_82484,"Popeyes 524 Highway 82 W Indianola, Mississippi 38751 - USA",33.45766,-90.64181
restaurant_81940,"Popeyes 206 Superior Ave Bogalusa, Louisiana 70427 - USA",30.790632,-89.861149
restaurant_84358,"Popeyes 4023 Nolensville Pike Nashville, Tennessee 37211 - USA",36.083413,-86.727889
restaurant_83377,"Popeyes 1105 W Poplar Ave Collierville, Tennessee 38017 - USA",35.045973,-89.698963
restaurant_81718,"Popeyes 533 Highway 90 Bay St. Louis, Mississippi 39520 - USA",30.318199,-89.344352
restaurant_81888,"Popeyes 1921 N Highland Ave Jackson, Tennessee 38305 - USA",35.653978,-88.828964
restaurant_239791,"Popeyes 2123 Crawfordville Hwy Crawfordville, Florida 32327 - USA",30.214228,-84.363206
restaurant_83490,"Popeyes 1188 Murfreesboro Pike Nashville, Tennessee 37217 - USA",36.122583,-86.705231
restaurant_83699,"Popeyes 714 Vann Dr Jackson, Tennessee 38305 - USA",35.666855,-88.84906
restaurant_81803,"Popeyes 991 Brookway Blvd Brookhaven, Mississippi 39601 - USA",31.578587,-90.469027
restaurant_84446,"Popeyes 4201 Hacks Cross Rd Memphis, Tennessee 38125 - USA",35.033548,-89.796321
restaurant_85089,"Popeyes 6698 Goodman Road Olive Branch, Mississippi 38654 - USA",34.962867,-89.871523
restaurant_81776,"Popeyes 706 Memorial Blvd Picayune, Mississippi 39466 - USA",30.51673,-89.673668
restaurant_89030,"Popeyes 6403 Charlotte Pike Nashville, Tennessee 37209 - USA",36.143548,-86.873213
restaurant_83674,"Popeyes 914 Jefferson St Nashville, Tennessee 37208 - USA",36.173012,-86.793627
restaurant_82933,"Popeyes 6546 Winchester Rd Memphis, Tennessee 38115 - USA",35.04998,-89.844923
restaurant_82225,"Popeyes 513 N Davis Ave Cleveland, Mississippi 38732 - USA",33.751171,-90.716246
restaurant_235040,"Popeyes 433 Opry Mills Dr Nashville, Tennessee 37214 - USA",36.202265,-86.692916
restaurant_84371,"Popeyes 3012 Gallatin Pike Nashville, Tennessee 37216 - USA",36.204104,-86.737806
restaurant_85083,"Popeyes 3795 East Shelby Drive Memphis, Tennessee 38118 - USA",35.020204,-89.937972
restaurant_83976,"Popeyes 1296 N Germantown Pkwy Cordova, Tennessee 38016 - USA",35.16041,-89.79446
restaurant_240778,"Popeyes 507 S. Cumberland St. Lebanon, Tennessee 37087 - USA",36.195147,-86.294894
restaurant_82361,"Popeyes 992 Goodman Rd W Horn Lake, Mississippi 38637 - USA",34.963128,-90.008812
restaurant_82762,"Popeyes 4720 Showcase Blvd Memphis, Tennessee 38118 - USA",35.076393,-89.905781
restaurant_81798,"Popeyes 717 S State St Clarksdale, Mississippi 38614 - USA",34.188574,-90.581935
restaurant_237846,"Popeyes 2931 Clay St Vicksburg, Mississippi 39183 - USA",32.345857,-90.855835
restaurant_82564,"Popeyes 1420 Washington St Franklinton, Louisiana 70438 - USA",30.8477,-90.149462
restaurant_90605,"Popeyes 133 Hutton Place Ashland City, Tennessee 37015 - USA",36.250588,-87.034539
restaurant_85469,"Popeyes 4810 Poplar Avenue Memphis, Tennessee 38117 - USA",35.115019,-89.901847
restaurant_83968,"Popeyes 6175 Macon Rd Memphis, Tennessee 38134 - USA",35.162498,-89.857215
restaurant_82132,"Popeyes 3309 Pemberton Square Blvd Vicksburg, Mississippi 39180 - USA",32.314744,-90.878727
restaurant_81784,"Popeyes 1320 Delaware Ave Mccomb, Mississippi 39648 - USA",31.24782,-90.469258
restaurant_82767,"Popeyes 4624 Elvis Presley Blvd Memphis, Tennessee 38116 - USA",35.022025,-90.02466
restaurant_83303,"Popeyes 6085 Stage Rd Bartlett, Tennessee 38134 - USA",35.204212,-89.860411
restaurant_83037,"Popeyes 1430 E Brooks Rd Memphis, Tennessee 38116 - USA",35.06213,-90.016951
restaurant_83464,"Popeyes 735 Myatt Dr Madison, Tennessee 37115 - USA",36.295962,-86.69778
restaurant_82845,"Popeyes 2235 Lamar Ave Memphis, Tennessee 38114 - USA",35.107647,-89.988211
restaurant_89073,"Popeyes 947 South Jefferson Cookeville, Tennessee 38501 - USA",36.139476,-85.502015
restaurant_241237,"Popeyes 1000 Callender Lane Hendersonville, Tennessee 37075 - USA",36.313952,-86.592205
restaurant_83619,"Popeyes 3660 Austin Peay Hwy Memphis, Tennessee 38128 - USA",35.225202,-89.904461
restaurant_84815,"Popeyes 1370 Union Ave Memphis, Tennessee 38104 - USA",35.136993,-90.01576
restaurant_85087,"Popeyes 1801 East Gause Blvd Slidell, Louisiana 70461 - USA",30.284602,-89.743492
restaurant_241363,"Popeyes 1765 Norman Drive Valdosta, Valdosta, Georgia 31601 - USA",30.840408,-83.317948
restaurant_84517,"Popeyes 2629 N Hollywood St Memphis, Tennessee 38127 - USA",35.196972,-89.976277
restaurant_81691,"Popeyes 184 Hwy 190 Slidell, Louisiana 70458 - USA",30.28793,-89.781606
restaurant_82715,"Popeyes 2119 Bemiss Rd Valdosta, Georgia 31602 - USA",30.859073,-83.280441
restaurant_237855,"Popeyes 2153 Frayser Blvd Memphis, Tennessee 38127 - USA",35.2168,-89.991894
restaurant_81960,"Popeyes 1983 Hwy 82 East Greenville, Mississippi 38701 - USA",33.399342,-91.027
restaurant_241466,"Popeyes 72 E Franklin St Hartwell, Georgia 30643 - USA",34.352426,-82.928202
restaurant_84685,"Popeyes 684 Nashville Pike Gallatin, Tennessee 37066 - USA",36.381508,-86.463197
restaurant_83060,"Popeyes 8449 US Highway 51 N Millington, Tennessee 38053 - USA",35.356895,-89.895391
restaurant_84277,"Popeyes 809 Highway 51 N Covington, Tennessee 38019 - USA",35.573962,-89.645258
restaurant_81882,"Popeyes 2801 N Highway 190 Covington, Louisiana 70433 - USA",30.470598,-90.086722
restaurant_84649,"Popeyes 68182 Highway 59 Mandeville, Louisiana 70471 - USA",30.418674,-90.040146
restaurant_84026,"Popeyes 506 Avenue G Kentwood, Louisiana 70444 - USA",30.936499,-90.513386
restaurant_83044,"Popeyes 1344 N Missouri St West Memphis, Arkansas 72301 - USA",35.161301,-90.185105
restaurant_82668,"Popeyes 651 Main St Thomson, Georgia 30824 - USA",33.481178,-82.506131
restaurant_89115,"Popeyes 701 Highway 76 White House, Tennessee 37188 - USA",36.469179,-86.674663
restaurant_235450,"Popeyes 68 West Coffee Street Hazlehurst, Georgia 31539 - USA",31.876881,-82.596327
restaurant_81806,"Popeyes 701 N Causeway Blvd Mandeville, Louisiana 70448 - USA",30.375854,-90.09132
restaurant_242475,"Popeyes 801 W Base St, Madison, Florida 32340 - USA",30.471365,-83.426186
restaurant_82669,"Popeyes 102 US Highway 1 Byp S Louisville, Georgia 30434 - USA",33.004373,-82.39624
restaurant_82359,"Popeyes 410 E Green St Tallulah, Louisiana 71282 - USA",32.408843,-91.186887
restaurant_84163,"Popeyes 615 N Watt Rd Knoxville, Tennessee 37934 - USA",35.873199,-84.238014
restaurant_84440,"Popeyes 835 Foothills Mall Dr Maryville, Tennessee 37801 - USA",35.752842,-83.996751
restaurant_84855,"Popeyes 6901 Lake Park Bellville Rd Lake Park, Georgia 31636 - USA",30.643997,-83.187662
restaurant_239912,"Popeyes 323 S Main St Swainsboro, Georgia 30401 - USA",32.591583,-82.328954
restaurant_235253,"Popeyes 1665 Hankook Rd Clarksville, Tennessee 37043 - USA",36.558061,-87.23905
restaurant_83616,"Popeyes 1209 W Oak St Amite City, Louisiana 70422 - USA",30.725886,-90.530008
restaurant_240232,"Popeyes 13020 Clemson Boulevard Seneca, SC, South Carolina 29678 - USA",34.69042,-82.86091
restaurant_84518,"Popeyes 3101 E 1st St Vidalia, Georgia 30474 - USA",32.204523,-82.362564
restaurant_84905,"Popeyes 1640 Fort Campbell Blvd Clarksville, Tennessee 37042 - USA",36.575543,-87.408404
restaurant_84851,"Popeyes 43103 S Airport Rd Hammond, Louisiana 70403 - USA",30.48201,-90.415064
restaurant_237860,"Popeyes 3811 Clemson Blvd Anderson, South Carolina 29621 - USA",34.554722,-82.68372
restaurant_86555,"Popeyes 2159 S Byron Butler Pkwy Perry, Florida 32348 - USA",30.096051,-83.581772
restaurant_81957,"Popeyes 5757 Read Blvd New Orleans, Louisiana 70127 - USA",30.036119,-89.974708
restaurant_242479,"Popeyes 419 S Church St, Homerville, Georgia 31634 - USA",31.031074,-82.743116
restaurant_84196,"Popeyes 14274 University Ave Hammond, Louisiana 70401 - USA",30.518659,-90.495102
restaurant_81764,"Popeyes 275 S. Morrison Blvd Hammond, Louisiana 70401 - USA",30.499066,-90.482108
restaurant_83865,"Popeyes (Military Post Access Required) Ft Campbell Food Court Fort Campbell, Kentucky 42223 - USA",36.645877,-87.45198
restaurant_83388,"Popeyes 8700 Chef Menteur Hwy New Orleans, Louisiana 70127 - USA",30.01457,-89.98419
restaurant_242112,"Popeyes 606 S. Pierce Street Alma, Georgia 31510 - USA",31.537961,-82.462815
restaurant_242111,"Popeyes 600 W Parker St Baxley, Georgia 31513 - USA",31.782093,-82.358174
restaurant_84024,"Popeyes 1000 US Highway 51 Byp W Dyersburg, Tennessee 38024 - USA",36.057705,-89.399314
restaurant_82094,"Popeyes 1163 Highway 51 Ponchatoula, Louisiana 70454 - USA",30.441959,-90.456011
restaurant_87603,"Popeyes 1377 Nashville Highway Franklin, Kentucky 42134 - USA",36.698343,-86.571163
restaurant_86554,"Popeyes (Military Post Access Required) Market Garden Road Fort Campbell, Kentucky 42223 - USA",36.663959,-87.481342
restaurant_241402,"Popeyes 422 Lewiston Rd Grovetown, Georgia 30813 - USA",33.49131,-82.198608
restaurant_81824,"Popeyes 4480 Chef Menteur Hwy New Orleans, Louisiana 70126 - USA",30.004822,-90.036719
restaurant_82169,"Popeyes 6232 Elysian Fields Ave New Orleans, Louisiana 70122 - USA",30.022836,-90.061667
restaurant_83425,"Popeyes 8350 W Judge Perez Dr Chalmette, Louisiana 70043 - USA",29.95279,-89.97886
restaurant_81909,"Popeyes 2000 Gentilly Blvd New Orleans, Louisiana 70119 - USA",29.989366,-90.072359
restaurant_82758,"Popeyes (Military Post Access Required) 3rd Ave Fort Gordon, Georgia 30905 - USA",33.407972,-82.135325
restaurant_84999,"Popeyes 4801 Clinton Hwy Knoxville, Tennessee 37912 - USA",36.001167,-83.973838
restaurant_81725,"Popeyes 3825 General Degaulle Dr New Orleans, Louisiana 70114 - USA",29.921819,-90.016616
restaurant_82670,"Popeyes 431 S Belair Rd Martinez, Georgia 30907 - USA",33.484211,-82.132877
restaurant_81708,"Popeyes 621 Canal St New Orleans, Louisiana 70130 - USA",29.953144,-90.068381
restaurant_81668,"Popeyes 1301 Veterans Memorial Blvd Metairie, Louisiana 70005 - USA",30.002149,-90.137257
restaurant_240038,"Popeyes 201 Eldridge Rd Forrest City, Arkansas 72335 - USA",35.038881,-90.790163
restaurant_81711,"Popeyes 1243 Saint Charles Ave New Orleans, Louisiana 70130 - USA",29.940747,-90.074625
restaurant_81963,"Popeyes 8144 Highway 23 Belle Chasse, Louisiana 70037 - USA",29.858355,-89.98931
restaurant_81823,"Popeyes 1401 Lafayette St Gretna, Louisiana 70053 - USA",29.909324,-90.055829
restaurant_81733,"Popeyes 2148 Belle Chasse Hwy Gretna, Louisiana 70053 - USA",29.88874,-90.03191
restaurant_82672,"Popeyes 2491 Tobacco Road Hephzibah, Georgia 30815 - USA",33.377071,-82.070441
restaurant_83379,"Popeyes 4238 S Claiborne Ave New Orleans, Louisiana 70125 - USA",29.939931,-90.101847
restaurant_81923,"Popeyes 4305 Transcontinental Dr Metairie, Louisiana 70006 - USA",30.01624,-90.198024
restaurant_878870,"Popeyes 3450 Wrightsboro Rd Augusta, Georgia 30909 - USA",33.463622,-82.078805
restaurant_81712,"Popeyes 4701 Veterans Memorial Blvd Metairie, Louisiana 70006 - USA",30.005901,-90.188344
restaurant_85227,"Popeyes 2616 Parkway Pigeon Forge, Tennessee 37863 - USA",35.803664,-83.576151
restaurant_82673,"Popeyes 3209 Deans Bridge Rd Augusta, Georgia 30906 - USA",33.421839,-82.064174
restaurant_90202,"Popeyes 819 North 12th Street Murray, Kentucky 42071 - USA",36.627414,-88.314522
restaurant_90831,"Popeyes 119 South North Service Rd., Blytheville, Arkansas 72315 - USA",35.927763,-89.875386
restaurant_82255,"Popeyes 1545 Lapalco Blvd Harvey, Louisiana 70058 - USA",29.87526,-90.047583
restaurant_84676,"Popeyes 3004 Jefferson Hwy Jefferson, Louisiana 70121 - USA",29.962496,-90.157354
restaurant_82667,"Popeyes 534 S Liberty St Waynesboro, Georgia 30830 - USA",33.089084,-82.014718
restaurant_81716,"Popeyes 4605 Airline Dr Metairie, Louisiana 70001 - USA",29.975894,-90.18065
restaurant_81762,"Popeyes 7212 Veterans Blvd Metairie, Louisiana 70003 - USA",30.004873,-90.220197
restaurant_81710,"Popeyes 3444 Williams Blvd Kenner, Louisiana 70065 - USA",30.019245,-90.239002
restaurant_81666,"Popeyes 1009 Barataria Boulevard Marrero, Louisiana 70072 - USA",29.892843,-90.099477
restaurant_237869,"Popeyes 6944 Maynardville Pike Knoxville, Tennessee 37918 - USA",36.073941,-83.927169
restaurant_83424,"Popeyes 1216 Elmwood Park Blvd Harahan, Louisiana 70123 - USA",29.964453,-90.190496
restaurant_82671,"Popeyes 2802 Wrightsboro Rd Augusta, Georgia 30909 - USA",33.468598,-82.032577
restaurant_81829,"Popeyes 263 Deveraux Drive Natchez, Mississippi 39120 - USA",31.55926,-91.370173
restaurant_81714,"Popeyes 7100 Westbank Expy Marrero, Louisiana 70072 - USA",29.89416,-90.125553
restaurant_81916,"Popeyes 3016 Loyola Dr Kenner, Louisiana 70065 - USA",30.009535,-90.265907
restaurant_82039,"Popeyes 5950 Lapalco Blvd Marrero, Louisiana 70072 - USA",29.875519,-90.110368
restaurant_81661,"Popeyes 8901 Airline Dr Metairie, Louisiana 70003 - USA",29.979634,-90.234363
restaurant_84251,"Popeyes 601 Parkway Sevierville, Tennessee 37862 - USA",35.859865,-83.567138
restaurant_237342,"Popeyes 5138 Calhoun Memorial Highway Easley, South Carolina 29640 - USA",34.824917,-82.556751
restaurant_240373,"Popeyes 4000 Ft. Campbell Blvd. Hopkinsville, Kentucky 42240 - USA",36.836044,-87.473685
restaurant_239910,"Popeyes 1610 South Georgia Parkway West Waycross, Georgia 31503 - USA",31.20921,-82.378363
restaurant_82706,"Popeyes 315 Highway 25 North Millen, Georgia 30442 - USA",32.804238,-81.949614
restaurant_84070,"Popeyes 2912 Highway 90 W Avondale, Louisiana 70094 - USA",29.910443,-90.2038
restaurant_90835,"Popeyes 1470 N Falls Blvd. Wynne, Arkansas 72396 - USA",35.234684,-90.783852
restaurant_240731,"Popeyes 2123 Ohio Ave N Live Oak, Florida 32064 - USA",30.318145,-82.97162
restaurant_82082,"Popeyes 1515 Carter St Vidalia, Louisiana 71373 - USA",31.571259,-91.44092
restaurant_82674,"Popeyes 450 Walton Way Augusta, Georgia 30901 - USA",33.465499,-81.962324
restaurant_85155,"Popeyes 2106 Memorial Drive Waycross, Georgia 31501 - USA",31.20107,-82.329448
restaurant_237755,"Popeyes 1213 SC-72 Greenwood, South Carolina 29649 - USA",34.21021,-82.14852
restaurant_85111,"Popeyes 305 Howard Baker Highway Pioneer, Tennessee 37847 - USA",36.376299,-84.247029
restaurant_82985,"Popeyes 28710 Walker Rd S Walker, Louisiana 70785 - USA",30.479079,-90.862736
restaurant_239848,"Popeyes 3004 Nashville Road Bowling Green, Kentucky 42104 - USA",36.951522,-86.474874
restaurant_81795,"Popeyes 1603 W Airline Hwy Laplace, Louisiana 70068 - USA",30.072198,-90.496909
restaurant_82125,"Popeyes 13510 Longview Rd Destrehan, Louisiana 70047 - USA",29.950993,-90.379157
restaurant_83340,"Popeyes 34579 Hwy 16 Denham Springs, Louisiana 70706 - USA",30.569297,-90.956341
restaurant_82393,"Popeyes #4 McGowan St Rayville, Louisiana 71269 - USA",32.45405,-91.759812
restaurant_89153,"Popeyes 8816 US 301 Claxton, Georgia 30417 - USA",32.18089,-81.89099
restaurant_82352,"Popeyes 3610 Front St Winnsboro, Louisiana 71295 - USA",32.171124,-91.725305
restaurant_88504,"Popeyes 1018 Paris Road Mayfield, Kentucky 42066 - USA",36.72732,-88.62966
restaurant_83078,"Popeyes 13210 Highway 90 Boutte, Louisiana 70039 - USA",29.904432,-90.378986
restaurant_239841,"Popeyes 200 S Main St Mauldin, South Carolina 29662 - USA",34.776061,-82.308368
restaurant_84088,"Popeyes 18320 Cooper St Port Vincent, Louisiana 70726 - USA",30.332921,-90.849434
restaurant_83972,"Popeyes 14575 Wax Rd Baton Rouge, Louisiana 70818 - USA",30.543551,-91.0256
restaurant_81959,"Popeyes 536 Fair Rd Statesboro, Georgia 30458 - USA",32.433067,-81.780619
restaurant_88590,"Popeyes 6860 Louisville Road Bowling Green, Kentucky 42101 - USA",37.035295,-86.339478
restaurant_82482,"Popeyes 431 Highway 425 N Monticello, Arkansas 71655 - USA",33.637424,-91.801869
restaurant_235426,"Popeyes W Cherry St & Wall St, Glasgow, Kentucky 42141 - USA",37.007443,-85.920526
restaurant_240614,"Popeyes 658 Champion Drive Canton, NC, North Carolina 28716 - USA",35.553092,-82.8514
restaurant_235425,"Popeyes 1930 O' Neal Lane Baton Rouge, Louisiana 70816 - USA",30.440757,-91.008103
restaurant_81752,"Popeyes 111 Hall St Bastrop, Louisiana 71220 - USA",32.778168,-91.905925
restaurant_86692,"Popeyes 2104 S Main St Stuttgart, Arkansas 72160 - USA",34.480993,-91.55345
restaurant_83068,"Popeyes 982 Highway 3125 Gramercy, Louisiana 70052 - USA",30.0639,-90.699317
restaurant_84204,"Popeyes 20401 Old Scenic Hwy Zachary, Louisiana 70791 - USA",30.653514,-91.193698
restaurant_82193,"Popeyes 5120 Jones Creek Rd Baton Rouge, Louisiana 70817 - USA",30.407667,-91.016465
restaurant_82201,"Popeyes 9376 Greenwell Springs Rd Baton Rouge, Louisiana 70814 - USA",30.484486,-91.084678
restaurant_81702,"Popeyes 10706 Florida Blvd Baton Rouge, Louisiana 70815 - USA",30.457125,-91.066259
restaurant_83803,"Popeyes 912 Unity Rd Crossett, Arkansas 71635 - USA",33.137479,-91.940496
restaurant_82105,"Popeyes 11413 Reulet Ave Baton Rouge, Louisiana 70816 - USA",30.432073,-91.056707
restaurant_85648,"Popeyes 270 Main St. Baker, Louisiana 70714 - USA",30.576845,-91.16978
restaurant_82462,"Popeyes 17224 Airline Hwy Prairieville, Louisiana 70769 - USA",30.322757,-90.978635
restaurant_239358,"Popeyes 755 N 1st St Jesup, Georgia 31545 - USA",31.614125,-81.877899
restaurant_81870,"Popeyes 1109 N Airline Highway Gonzales, Louisiana 70737 - USA",30.241251,-90.916938
restaurant_82275,"Popeyes 5946 Airline Hwy Baton Rouge, Louisiana 70805 - USA",30.5015,-91.131348
restaurant_82676,"Popeyes 954 York St NE Aiken, South Carolina 29801 - USA",33.574416,-81.704307
restaurant_90038,"Popeyes 1109 West Wade Hampton Greer, South Carolina 29601 - USA",34.94273,-82.25498
restaurant_83831,"Popeyes 18281 Highland Rd Baton Rouge, Louisiana 70810 - USA",30.349726,-91.026729
restaurant_82842,"Popeyes 7330 John LeBlanc Blvd Sorrento, Louisiana 70778 - USA",30.174513,-90.875761
restaurant_82287,"Popeyes 3777 Choctaw Dr Baton Rouge, Louisiana 70805 - USA",30.47061,-91.152884
restaurant_83949,"Popeyes 13401 Highway 73 Prairieville, Louisiana 70769 - USA",30.265518,-90.988661
restaurant_82137,"Popeyes 5275 Government St Baton Rouge, Louisiana 70806 - USA",30.444893,-91.135549
restaurant_82536,"Popeyes 2702 W Highway 30 Gonzales, Louisiana 70737 - USA",30.211166,-90.951912
restaurant_82051,"Popeyes 2137 Staring Ln Baton Rouge, Louisiana 70810 - USA",30.393631,-91.110741
restaurant_83802,"Popeyes 1323 Red Wolf Blvd Jonesboro, Arkansas 72401 - USA",35.830167,-90.669395
restaurant_235535,"Popeyes 3305 Harrisburg Road Jonesboro, Arkansas 72404 - USA",35.80424,-90.699043
restaurant_83897,"Popeyes 10613 Burbank Dr Baton Rouge, Louisiana 70810 - USA",30.354023,-91.108035
restaurant_81646,"Popeyes 121 NW Main Blvd Lake City, Florida 32055 - USA",30.189702,-82.639038
restaurant_90203,"Popeyes 432 Airport Road Arden, North Carolina 28704 - USA",35.444856,-82.534281
restaurant_237959,"Popeyes 275 Smokey Park Highway Asheville, North Carolina 28806 - USA",35.56139,-82.63383
restaurant_81871,"Popeyes 13952 W Main St Cut Off, Louisiana 70345 - USA",29.551128,-90.347931
restaurant_82417,"Popeyes 290 Lobdell Hwy Port Allen, Louisiana 70767 - USA",30.453012,-91.246018
restaurant_82261,"Popeyes 1713 Martin Luther King Jr Dr Monroe, Louisiana 71202 - USA",32.487667,-92.082354
restaurant_82024,"Popeyes 4556 Hwy 1 Raceland, Louisiana 70394 - USA",29.70454,-90.567212
restaurant_237949,"Popeyes 2001 W. Kingshighway Paragould, Arkansas 72450 - USA",36.05649,-90.510423
restaurant_81690,"Popeyes 1950 Louisville Ave Monroe, Louisiana 71201 - USA",32.518543,-92.104464
restaurant_82033,"Popeyes (Military Post Access Required) A.A.F.E.S Bldg, 703 Gulick Ave Fort Stewart, Georgia 31314 - USA",31.877338,-81.623277
restaurant_88196,"Popeyes 127 East Morris Blvd Morristown, Tennessee 37601 - USA",36.212836,-83.290585
restaurant_82045,"Popeyes 3470 Highway 1 South Donaldsonville, Louisiana 70346 - USA",30.097147,-91.001234
restaurant_239659,"Popeyes 3512 Clarks River Rd. Paducah, Kentucky 42003 - USA",37.048567,-88.563375
restaurant_83669,"Popeyes 2090 Lone Oak Rd Paducah, Kentucky 42003 - USA",37.047761,-88.654039
restaurant_82778,"Popeyes 7213 Highway 165 Columbia, Louisiana 71418 - USA",32.088802,-92.089279
restaurant_81773,"Popeyes 210 Thomas Rd West Monroe, Louisiana 71291 - USA",32.510883,-92.157754
restaurant_82375,"Popeyes 615 E Oglethorpe Ave (State Rd 84) Hinesville, Georgia 31313 - USA",31.850679,-81.583617
restaurant_82020,"Popeyes 24615 Highway 1 Plaquemine, Louisiana 70764 - USA",30.281176,-91.22706
restaurant_242067,"Popeyes 1628 John B White Sr Blvd Spartanburg, South Carolina 29301 - USA",34.923596,-81.980284
restaurant_83618,"Popeyes 700 N Canal Blvd Thibodaux, Louisiana 70301 - USA",29.813218,-90.815061
restaurant_85431,"Popeyes 854 State Highway 80 Matthews, Missouri 63867 - USA",36.758041,-89.534852
restaurant_82967,"Popeyes 2700 S Olive St Pine Bluff, Arkansas 71603 - USA",34.20203,-92.007444
restaurant_88483,"Popeyes 1060 S Acadia Rd Thibodaux, Louisiana 70301 - USA",29.778921,-90.806052
restaurant_240401,"Popeyes 81 Midtown Blvd Madisonville,, Kentucky 42431 - USA",37.328034,-87.480471
restaurant_242218,"Popeyes 1248 Wilson Rd Newberry, South Carolina 29108 - USA",34.283976,-81.597148
restaurant_85294,"Popeyes 3895 Boiling Springs Road Boiling Springs, South Carolina 29316 - USA",35.047757,-81.98491
restaurant_242110,"Popeyes Swannanoa, North Carolina 28778 - USA",35.599172,-82.40262
restaurant_234903,"Popeyes 3411 S Camden Rd Pine Bluff, Arkansas, Arkansas 71603 - USA",34.19401,-92.057979
restaurant_90840,"Popeyes 4090 West Main St Gray, Louisiana 70359 - USA",29.676857,-90.782387
restaurant_237853,"Popeyes 100 Makena Drive Somerset, Kentucky 42501 - USA",37.063052,-84.622457
restaurant_240042,"Popeyes Grand Caillou Road Houma, Louisiana 70363 - USA",29.581297,-90.692868
restaurant_81763,"Popeyes 6509 W Park Ave Houma, Louisiana 70364 - USA",29.620285,-90.74738
restaurant_82907,"Popeyes 2529 E Oak St Jena, Louisiana 71342 - USA",31.68221,-92.12866
restaurant_82214,"Popeyes 709 W Tunnel Blvd Houma, Louisiana 70360 - USA",29.590207,-90.730098
restaurant_83568,"Popeyes 8101 Sheridan Rd White Hall, Arkansas 71602 - USA",34.260788,-92.101593
restaurant_82562,"Popeyes 412 S Main St Farmerville, Louisiana 71241 - USA",32.771278,-92.405832
restaurant_238808,"Popeyes 812 South 6th Street Macclenny, Florida 32063 - USA",30.27086,-82.12298
restaurant_239673,"Popeyes 1022 US-80 Pooler, Georgia 31322 - USA",32.12184,-81.26438
restaurant_241087,"Popeyes 1124 N Young Blvd Chiefland, Florida 32626 - USA",29.49,-82.862821
restaurant_86640,"Popeyes 362 South Columbia Avenue Rincon, Georgia 31326 - USA",32.279738,-81.23084
restaurant_83294,"Popeyes 1805 E Beebe Capps Expy Searcy, Arkansas 72143 - USA",35.240353,-91.717579
restaurant_240637,"Popeyes 15655 NW US Hwy 441 Alachua Alachua, Florida 32615 - USA",29.79917,-82.50178
restaurant_86500,"Popeyes 4933 New Jesup Hwy Brunswick, Georgia 31520 - USA",31.215945,-81.518654
restaurant_82150,"Popeyes 774 Tunica Dr E Marksville, Louisiana 71351 - USA",31.113647,-92.065609
restaurant_239779,"Popeyes 450047 State Road 200 Callahan, Florida 32011 - USA",30.566612,-81.82775
restaurant_81643,"Popeyes 3319 Altama Ave Brunswick, Georgia 31520 - USA",31.177848,-81.490492
restaurant_83804,"Popeyes 1860 S Lake Dr Lexington, South Carolina 29073 - USA",33.908348,-81.224243
restaurant_84426,"Popeyes 1105 E King Ave Kingsland, Georgia 31548 - USA",30.79382,-81.666373
restaurant_237542,"Popeyes 4818 Augusta Road Garden City, Georgia 31408 - USA",32.10985,-81.15945
restaurant_85267,"Popeyes 1637 West Floyd Baker Blvd Gaffney, South Carolina 29341 - USA",35.093528,-81.665828
restaurant_85563,"Popeyes 1160 Dutch Fork Road Irmo, South Carolina 29063 - USA",34.126183,-81.223478
restaurant_83763,"Popeyes (Military Post Access Required) 931B Duncan Avenue Savannah, Georgia 31304 - USA",32.028227,-81.126435
restaurant_83716,"Popeyes 3131 S 2nd St Cabot, Arkansas 72023 - USA",34.947554,-92.060188
restaurant_81839,"Popeyes 6414 Highway 90 East Morgan City, Louisiana 70380 - USA",29.697821,-91.196754
restaurant_81696,"Popeyes 605 Martin Luther King Jr Blvd Savannah, Georgia 31401 - USA",32.070589,-81.101445
restaurant_81818,"Popeyes 2514 Bull St Savannah, Georgia 31401 - USA",32.0532,-81.10151
restaurant_83981,"Popeyes 1502 W Main St Jacksonville, Arkansas 72076 - USA",34.86708,-92.125488
restaurant_239760,"Popeyes Hwy 33 Ruston, Louisiana 71270 - USA",32.543218,-92.614544
restaurant_83552,"Popeyes 2832 Augusta Rd West Columbia, South Carolina 29170 - USA",33.979808,-81.112774
restaurant_240427,"Popeyes 5695 NW 23rd St Gainesville, Florida 32653 - USA",29.709392,-82.354895
restaurant_81866,"Popeyes 2060 E Victory Dr Savannah, Georgia 31404 - USA",32.042221,-81.065282
restaurant_84655,"Popeyes 4415 E McCain Blvd North Little Rock, Arkansas 72117 - USA",34.789567,-92.2152
restaurant_239782,"Popeyes 1512 Anthony Street Morgan City, Louisiana 70380 - USA",29.684921,-91.256833
restaurant_82070,"Popeyes 501 W California Ave Ruston, Louisiana 71270 - USA",32.523667,-92.6445
restaurant_82599,"Popeyes 1050 S Walnut St Starke, Florida 32091 - USA",29.935073,-82.112765
restaurant_82404,"Popeyes 1745 N West Ave El Dorado, Arkansas 71730 - USA",33.229329,-92.665255
restaurant_82180,"Popeyes 716 E Broadway St North Little Rock, Arkansas 72114 - USA",34.755642,-92.259689
restaurant_82505,"Popeyes 200 E Kiehl Ave Sherwood, Arkansas 72120 - USA",34.832751,-92.2303
restaurant_86483,"Popeyes 824 S Broadway St Little Rock, Arkansas 72206 - USA",34.7411,-92.276998
restaurant_81660,"Popeyes 5581 Soutel Dr Jacksonville, Florida 32219 - USA",30.387673,-81.733208
restaurant_82018,"Popeyes 1412 N Main St Gainesville, Florida 32601 - USA",29.665076,-82.324862
restaurant_83788,"Popeyes 3017 Grand Point Hwy Henderson, Louisiana 70517 - USA",30.311958,-91.833205
restaurant_84891,"Popeyes 1205 N Westwood Blvd Poplar Bluff, Missouri 63901 - USA",36.767682,-90.415813
restaurant_90080,"Popeyes 4704 Camp Robinson Rd North Little Rock, Arkansas 72118 - USA",34.797997,-92.268828
restaurant_82702,"Popeyes 3508 Monroe Hwy Pineville, Louisiana 71360 - USA",31.364306,-92.410265
restaurant_81652,"Popeyes 8007 Normandy Blvd Jacksonville, Florida 32221 - USA",30.292808,-81.78163
restaurant_85472,"Popeyes 2906 State Route 54 Owensboro, Kentucky 42303 - USA",37.756332,-87.068767
restaurant_82181,"Popeyes 2721 Highway 28 E Pineville, Louisiana 71360 - USA",31.333527,-92.406938
restaurant_241064,"Popeyes 9144 103rd Street Jacksonville, Florida 32210 - USA",30.247778,-81.806725
restaurant_84052,"Popeyes 1325 S Saint Louis St Batesville, Arkansas 72501 - USA",35.765862,-91.640662
restaurant_82651,"Popeyes 1390 Hwy 4 Bypass Camden, Arkansas 71701 - USA",33.5681,-92.679851
restaurant_81986,"Popeyes 1324 Dunn Ave Jacksonville, Florida 32218 - USA",30.429472,-81.668504
restaurant_81816,"Popeyes 5715 Normandy Blvd Jacksonville, Florida 32205 - USA",30.308063,-81.746322
restaurant_90641,"Popeyes 45 Duval Station Rd Jacksonville, Florida 32218 - USA",30.490034,-81.623735
restaurant_81924,"Popeyes 2143 Edgewood Ave W Jacksonville, Florida 32209 - USA",30.38003,-81.6964
restaurant_81651,"Popeyes 656 Edgewood Ave N Jacksonville, Florida 32254 - USA",30.329104,-81.731326
restaurant_86662,"Popeyes 4900 W. Markham Rd Little Rock, Arkansas 72205 - USA",34.752129,-92.327698
restaurant_83649,"Popeyes 3208 S University Ave Little Rock, Arkansas 72204 - USA",34.722588,-92.342534
restaurant_81655,"Popeyes 7606 Lem Turner Rd Jacksonville, Florida 32208 - USA",30.388568,-81.678074
restaurant_82863,"Popeyes 8815 Baseline Road Little Rock, Arkansas 72209 - USA",34.669666,-92.376416
restaurant_83199,"Popeyes 1875 N Dixie Hwy Elizabethtown, Kentucky 42701 - USA",37.737629,-85.888033
restaurant_81688,"Popeyes 649 McDuff Ave S Jacksonville, Florida 32205 - USA",30.320066,-81.705093
restaurant_81835,"Popeyes 1833 Kings Rd Jacksonville, Florida 32209 - USA",30.345553,-81.687242
restaurant_81681,"Popeyes 1501 Joe Hoy Dr Franklin, Louisiana 70538 - USA",29.808913,-91.510372
restaurant_83980,"Popeyes 135 Richard Zuber Thruway Jonesboro, Louisiana 71251 - USA",32.241946,-92.71184
restaurant_81683,"Popeyes 6310 103rd St Jacksonville, Florida 32210 - USA",30.248108,-81.745671
restaurant_87986,"Popeyes 7762 Argyle Forest Boulevard Jacksonville, Florida 32244 - USA",30.195718,-81.775305
restaurant_86573,"Popeyes 2496 Blanding Blvd Middleburg, Florida 32068 - USA",30.071014,-81.86586
restaurant_82594,"Popeyes 2021 Rees St Breaux Bridge, Louisiana 70517 - USA",30.292064,-91.914675
restaurant_81807,"Popeyes 3701 S MacArthur Dr Alexandria, Louisiana 71302 - USA",31.263364,-92.450171
restaurant_90386,"Popeyes 10900 Colonel Glenn Rd Little Rock, Arkansas 72204 - USA",34.713163,-92.398623
restaurant_81650,"Popeyes 1902 N Main St Jacksonville, Florida 32206 - USA",30.347332,-81.654169
restaurant_240205,"Popeyes 1245 E Dixon Blvd. Shelby, North Carolina 28152 - USA",35.273774,-81.520598
restaurant_81872,"Popeyes 921 S Union St Opelousas, Louisiana 70570 - USA",30.524924,-92.081717
restaurant_82876,"Popeyes 1108 Chestnut St Orangeburg, South Carolina 29115 - USA",33.511005,-80.856252
restaurant_82119,"Popeyes 2312 N Main St St. Martinville, Louisiana 70582 - USA",30.146424,-91.822481
restaurant_83734,"Popeyes 7540 Garners Ferry Rd Columbia, South Carolina 29209 - USA",33.961927,-80.940217
restaurant_82120,"Popeyes 1001 MacArthur Dr Alexandria, Louisiana 71303 - USA",31.292081,-92.476546
restaurant_83939,"Popeyes 3237 William St Cape Girardeau, Missouri 63703 - USA",37.301921,-89.575882
restaurant_82535,"Popeyes 11501 W Markham St Little Rock, Arkansas 72211 - USA",34.753823,-92.403135
restaurant_84547,"Popeyes (Military Post Access Required) 5650 Lee Rd Columbia, South Carolina 29206 - USA",34.012918,-80.931044
restaurant_240213,"Popeyes 427 West Noble Avenue Williston, Florida 32696 - USA",29.38596,-82.45305
restaurant_81992,"Popeyes 430 Blanding Blvd Orange Park, Florida 32073 - USA",30.162022,-81.747914
restaurant_82655,"Popeyes 412 W Martin Luther King Dr Grand Coteau, Louisiana 70541 - USA",30.417503,-92.051786
restaurant_84990,"Popeyes 468 Killian Road Columbia, South Carolina 29203 - USA",34.1396,-80.950971
restaurant_86436,"Popeyes 12201 Maumelle Blvd North Little Rock, Arkansas 72113 - USA",34.831694,-92.396515
restaurant_84986,"Popeyes 2810 N. Reynolds Road Bryant, Arkansas 72022 - USA",34.620719,-92.4976
restaurant_81726,"Popeyes 1509 University Blvd N Jacksonville, Florida 32211 - USA",30.336086,-81.602328
restaurant_90830,"Popeyes 34 N Green St Henderson, Kentucky 42420 - USA",37.837818,-87.589052
restaurant_84827,"Popeyes 2602 N Roan St Johnson City, Tennessee 37601 - USA",36.351857,-82.380221
restaurant_82600,"Popeyes 3920 NW Evangeline Trwy Carencro, Louisiana 70520 - USA",30.321971,-92.031931
restaurant_82281,"Popeyes 401 Tate Cove Rd Ville Platte, Louisiana 70586 - USA",30.687666,-92.264135
restaurant_81876,"Popeyes 4108 University Blvd S Jacksonville, Florida 32216 - USA",30.282296,-81.603142
restaurant_81689,"Popeyes 7507 Atlantic Blvd Jacksonville, Florida 32211 - USA",30.313811,-81.578752
restaurant_81715,"Popeyes 1108 E Saint Peter St New Iberia, Louisiana 70560 - USA",29.996496,-91.804622
restaurant_85044,"Popeyes 10002 Two Notch Road Columbia, South Carolina 29223 - USA",34.111931,-80.894052
restaurant_235633,"Popeyes 9309 Merrill Rd Jacksonville, Florida 32225 - USA",30.353007,-81.545445
restaurant_83370,"Popeyes 2012 Congo Rd Benton, Arkansas 72015 - USA",34.582603,-92.572644
restaurant_82945,"Popeyes 200 E Willow St Lafayette, Louisiana 70501 - USA",30.243914,-92.009956
restaurant_82111,"Popeyes 10132 San Jose Blvd Jacksonville, Florida 32257 - USA",30.194256,-81.624756
restaurant_88990,"Popeyes 19600 Cantrell Rd. Little Rock, Arkansas 72223 - USA",34.811909,-92.490934
restaurant_86639,"Popeyes (Military Post Access Required) 127 Gold Vault Road Fort Knox, Kentucky 40121 - USA",37.88535,-85.95034
restaurant_81832,"Popeyes 1300 W Pinhook Rd Lafayette, Louisiana 70503 - USA",30.200814,-92.015848
restaurant_87476,"Popeyes 1645 East Stone Dr Kingsport, Tennessee 37660 - USA",36.547848,-82.520016
restaurant_238071,"Popeyes 1222 Bells Highway Walterboro, South Carolina 29488 - USA",32.92483,-80.68246
restaurant_82353,"Popeyes 3500 W Pinhook Rd Lafayette, Louisiana 70508 - USA",30.161437,-91.992798
restaurant_83031,"Popeyes 1040 Baker Hughes Rd Broussard, Louisiana 70518 - USA",30.082121,-91.940382
restaurant_82085,"Popeyes 2404 W Congress St Lafayette, Louisiana 70506 - USA",30.214405,-92.048223
restaurant_84923,"Popeyes 1345 E Oak St Conway, Arkansas 72032 - USA",35.090777,-92.409329
restaurant_82844,"Popeyes 2216 Ambassador Caffery Pkwy Lafayette, Louisiana 70506 - USA",30.212032,-92.076152
restaurant_879360,"Popeyes 10300 Southside Blvd #3040A Jacksonville, Florida 32256 - USA",30.185839,-81.554094
restaurant_81950,"Popeyes 2805 Verot School Rd Lafayette, Louisiana 70508 - USA",30.144689,-92.03205
restaurant_878530,"Popeyes 109 Plaza Dr Berea, Kentucky 40403 - USA",37.569281,-84.310941
restaurant_84889,"Popeyes 704 I 10 S Frontage Rd Scott, Louisiana 70583 - USA",30.245094,-92.10602
restaurant_239099,"Popeyes 8867 High Pointe Dr Newburgh, Indiana 47630 - USA",37.977529,-87.411212
restaurant_83117,"Popeyes 1720 Old Morrilton Hwy Conway, Arkansas 72032 - USA",35.112476,-92.446006
restaurant_81922,"Popeyes 524 Atlantic Blvd Neptune Beach, Florida 32266 - USA",30.32422,-81.401428
restaurant_84187,"Popeyes 6808 Johnston St Lafayette, Louisiana 70503 - USA",30.149882,-92.095218
restaurant_239849,"Popeyes 2401 Menards Drive Evansville, Indiana 47715 - USA",37.999013,-87.493142
restaurant_84695,"Popeyes 3300 N 1st Ave Evansville, Indiana 47710 - USA",38.008938,-87.574883
restaurant_239914,"Popeyes 2802 W DeYoung Marion, Illinois 62959 - USA",37.744338,-88.971603
restaurant_86737,"Popeyes 2034 Oliver Lancaster Blvd Rockport, Arkansas 72104 - USA",34.38844,-92.829343
restaurant_239675,"Popeyes 1350 E Main St Rock Hill, South Carolina 29730 - USA",34.916918,-81.000921
restaurant_85060,"Popeyes 1650 County Road 210 W Jacksonville, Florida 32259 - USA",30.066294,-81.496346
restaurant_84647,"Popeyes 2445 Cherry Rd Rock Hill, South Carolina 29732 - USA",34.969929,-80.992825
restaurant_85156,"Popeyes 500 East Walnut Street Carbondale, Illinois 62901 - USA",37.726128,-89.209661
restaurant_82203,"Popeyes 1423 the Blvd Rayne, Louisiana 70578 - USA",30.251381,-92.270371
restaurant_85033,"Popeyes 3430 E Franklin Blvd Gastonia, North Carolina 28056 - USA",35.258682,-81.119219
restaurant_82025,"Popeyes 2311 W Laurel Ave Eunice, Louisiana 70535 - USA",30.494686,-92.440677
restaurant_241289,"Popeyes 1436 E Main St Lincolnton, North Carolina 28092 - USA",35.47669,-81.237039
restaurant_82030,"Popeyes 501 Veterans Memorial Dr Abbeville, Louisiana 70510 - USA",29.982658,-92.128794
restaurant_242061,"Popeyes 140 Blowing Rock Blvd Lenoir, North Carolina 28645 - USA",35.915772,-81.524188
restaurant_82266,"Popeyes 217 Highway 165 S Oakdale, Louisiana 71463 - USA",30.812807,-92.665934
restaurant_85308,"Popeyes 3420 West Silver Springs Blvd. Ocala, Florida 34475 - USA",29.185855,-82.180052
restaurant_89966,"Popeyes 1321 Euclid Avenue Bristol, Virginia 24201 - USA",36.602225,-82.194704
restaurant_239840,"Popeyes 445 Sumter Highway Camden, South Carolina 29020 - USA",34.219391,-80.594461
restaurant_237858,"Popeyes 426 Lancaster Bypass E Lancaster, South Carolina 29720 - USA",34.73152,-80.76537
restaurant_83160,"Popeyes 7528 Dixie Hwy Louisville, Kentucky 40258 - USA",38.141906,-85.840845
restaurant_81854,"Popeyes 2610 N Parkerson Ave Crowley, Louisiana 70526 - USA",30.234871,-92.384447
restaurant_82625,"Popeyes 710 S State Road 19 Palatka, Florida 32177 - USA",29.64248,-81.6765
restaurant_85052,"Popeyes 2455 Hwy 70 SE Hickory, North Carolina 28602 - USA",35.70154,-81.28951
restaurant_82185,"Popeyes 218 South Dr Natchitoches, Louisiana 71457 - USA",31.746496,-93.082569
restaurant_84707,"Popeyes 1060 Homer Rd Minden, Louisiana 71055 - USA",32.623248,-93.256312
restaurant_86546,"Popeyes 7723 Bardstown Road Louisville, Kentucky 40291 - USA",38.13469,-85.57919
restaurant_84975,"Popeyes 9501 South Blvd Charlotte, North Carolina 28273 - USA",35.107979,-80.880793
restaurant_234850,"Popeyes 135 W Arrowood Road Charlotte, North Carolina 28273 - USA",35.13497,-80.89301
restaurant_83053,"Popeyes 5003 Preston Hwy Louisville, Kentucky 40213 - USA",38.175589,-85.713109
restaurant_86618,"Popeyes 175 South Highway 17 E Palatka, Florida 32131 - USA",29.644476,-81.60465
restaurant_84795,"Popeyes 3318 Wilkinson Blvd Charlotte, North Carolina 28208 - USA",35.224834,-80.896213
restaurant_82189,"Popeyes 130 East Grand Avenue Hot Springs, Arkansas 71901 - USA",34.502655,-93.048984
restaurant_83927,"Popeyes 5101 University Pkwy Natchitoches, Louisiana 71457 - USA",31.729232,-93.151113
restaurant_82841,"Popeyes 4375 Central Ave Hot Springs, Arkansas 71913 - USA",34.45188,-93.073173
restaurant_85249,"Popeyes 2175 SW Highway 484 Ocala, Florida 34473 - USA",29.026027,-82.161423
restaurant_83101,"Popeyes 3317 Bardstown Rd Louisville, Kentucky 40218 - USA",38.20744,-85.667583
restaurant_85377,"Popeyes 1187 Broad Street Sumter, South Carolina 29150 - USA",33.956458,-80.382121
restaurant_84849,"Popeyes 1508 Albert Pike Rd Hot Springs, Arkansas 71913 - USA",34.493328,-93.08803
restaurant_85256,"Popeyes 10786 US-441 Belleview, Florida 34420 - USA",29.065305,-82.068866
restaurant_85070,"Popeyes 12206 Shelbyville Road Louisville, Kentucky 40243 - USA",38.246888,-85.528521
restaurant_90133,"Popeyes 1729 Sardis Road Charlotte, North Carolina 28270 - USA",35.14005,-80.73688
restaurant_85266,"Popeyes 4050 N Tryon Street Charlotte, North Carolina 28206 - USA",35.256546,-80.797136
restaurant_85580,"Popeyes 2170 State Street New Albany, Indiana 47150 - USA",38.30607,-85.840234
restaurant_83462,"Popeyes 3014 Paxville Hwy Manning, South Carolina 29102 - USA",33.704766,-80.242137
restaurant_85204,"Popeyes 6011 Albemarle Road Charlotte, North Carolina 28212 - USA",35.203671,-80.743054
restaurant_87447,"Popeyes 109 Parkway Avenue Summerville, South Carolina 29483 - USA",33.022835,-80.167329
restaurant_239674,"Popeyes 6107 The Plaza Charlotte, North Carolina 28215 - USA",35.248433,-80.752061
restaurant_85309,"Popeyes 13800 East Independence Blvd Indian Trail, North Carolina 28079 - USA",35.08318,-80.66084
restaurant_85384,"Popeyes 1625 Veterans Parkway Jeffersonville, Indiana 47130 - USA",38.329415,-85.744198
restaurant_85303,"Popeyes 115 East New Circle Road Lexington, Kentucky 40505 - USA",38.065198,-84.469345
restaurant_81838,"Popeyes 1629 Elton Rd Jennings, Louisiana 70546 - USA",30.23978,-92.66393
restaurant_234846,"Popeyes 1080 Bypass Rd Winchester, Kentucky 40391 - USA",37.99852,-84.213922
restaurant_83455,"Popeyes 4493 Commercial Way Spring Hill, Florida 34606 - USA",28.495539,-82.596354
restaurant_83308,"Popeyes 8427 Dorchester Rd North Charleston, South Carolina 29420 - USA",32.914513,-80.109382
restaurant_82786,"Popeyes I-75 & Route 44 Wildwood, Florida 34785 - USA",28.875203,-82.094084
restaurant_85548,"Popeyes 8111 Concord Mills Blvd Concord, North Carolina 28027 - USA",35.371235,-80.723976
restaurant_240340,"Popeyes 11858 University City Blvd Charlotte, North Carolina 28213 - USA",35.314541,-80.689399
restaurant_87983,"Popeyes 135 St James Ave Goose Creek, South Carolina 29445 - USA",33.0006,-80.041696
restaurant_84844,"Popeyes 843 S Broad St Brooksville, Florida 34601 - USA",28.546782,-82.399515
restaurant_83109,"Popeyes 5988 Rivers Ave North Charleston, South Carolina 29406 - USA",32.904828,-80.019996
restaurant_84845,"Popeyes 8968 State Road 52 Hudson, Florida 34667 - USA",28.330672,-82.668005
restaurant_81942,"Popeyes 2410 S 5th St Leesville, Louisiana 71446 - USA",31.118311,-93.270668
restaurant_240670,"Popeyes 460 N U.S. Hwy 52 Moncks Corner, South Carolina 29461 - USA",33.206805,-79.984828
restaurant_240426,"Popeyes 921 Concord Pkwy S Concord, North Carolina 28027 - USA",35.393935,-80.618399
restaurant_84619,"Popeyes 1489 Concord Pkwy N Concord, North Carolina 28025 - USA",35.438768,-80.606529
restaurant_83938,"Popeyes 2411 E Parkway Dr Russellville, Arkansas 72802 - USA",35.28296,-93.105172
restaurant_83397,"Popeyes 2887 Highway 62 E Mountain Home, Arkansas 72653 - USA",36.35819,-92.339266
restaurant_240638,"Popeyes 1110 S Cannon Blvd Kannapolis, North Carolina 28083 - USA",35.479226,-80.612223
restaurant_82885,"Popeyes 4510 Broadway St Mount Vernon, Illinois 62864 - USA",38.313372,-88.959326
restaurant_86759,"Popeyes 4100 Barksdale Blvd. Bossier City, Louisiana 71112 - USA",32.47825,-93.67666
restaurant_82050,"Popeyes 613 N 14th St Leesburg, Florida 34748 - USA",28.817513,-81.887828
restaurant_81800,"Popeyes 2104 Airline Dr Bossier City, Louisiana 71111 - USA",32.533102,-93.705417
restaurant_84374,"Popeyes 8640 Youree Dr Shreveport, Louisiana 71115 - USA",32.425143,-93.708705
restaurant_81948,"Popeyes 421 N Pine St Deridder, Louisiana 70634 - USA",30.851426,-93.289462
restaurant_90837,"Popeyes 1315 E. Hackberry Street Salem, Indiana 47167 - USA",38.615103,-86.084212
restaurant_237698,"Popeyes 6130 State Hwy 100 E Palm Coast, Florida 32137 - USA",29.476806,-81.177187
restaurant_81755,"Popeyes 525 E 70th St Shreveport, Louisiana 71106 - USA",32.442308,-93.746381
restaurant_240632,"Popeyes 27700 US-27 LEESBURG, Florida 34748 - USA",28.751714,-81.876935
restaurant_84020,"Popeyes 1910 N Market St Shreveport, Louisiana 71107 - USA",32.546118,-93.776418
restaurant_84059,"Popeyes 412 Washington Ave Mansfield, Louisiana 71052 - USA",32.033167,-93.711248
restaurant_234684,"Popeyes 1901 N Highway 19 Eustis, Florida 32726 - USA",28.87297,-81.68873
restaurant_81754,"Popeyes 3565 Greenwood Rd Shreveport, Louisiana 71109 - USA",32.475067,-93.796921
restaurant_82405,"Popeyes 9094 Mansfield Rd Shreveport, Louisiana 71118 - USA",32.407246,-93.800056
restaurant_241063,"Popeyes 2062 State Road 19 Tavares, Florida 32778 - USA",28.78261,-81.748513
restaurant_234567,"Popeyes 5885 N Market St. Shreveport, Louisiana 71107 - USA",32.601574,-93.843921
restaurant_88013,"Popeyes 1083 W McClain Avenue Scottsburg, Indiana 47170 - USA",38.685188,-85.783122
restaurant_83494,"Popeyes 4459 Pines Rd Shreveport, Louisiana 71119 - USA",32.453444,-93.865129
restaurant_86412,"Popeyes 1285 S Missouri Ave Clearwater, Florida 33756 - USA",27.951986,-82.787162
restaurant_85275,"Popeyes 28014 Wesley Chapel Blvd Wesley Chapel, Florida 33543 - USA",28.236022,-82.352731
restaurant_83811,"Popeyes 400 Sam Houston Jones Pkwy Moss Bluff, Louisiana 70611 - USA",30.300998,-93.20252
restaurant_239661,"Popeyes 327 E Caswell Wadesboro, North Carolina 28170 - USA",34.968948,-80.072845
restaurant_239756,"Popeyes 2115 W Evans St Florence, South Carolina 29501 - USA",34.191639,-79.810282
restaurant_84862,"Popeyes 1720 US Hwy 601 North Mocksville, North Carolina 27028 - USA",35.924883,-80.591593
restaurant_83737,"Popeyes 2301 W Lucas St Florence, South Carolina 29501 - USA",34.236381,-79.806355
restaurant_81719,"Popeyes 2710 Gertsner Memorial Drive, Lake Charles, Louisiana 70601 - USA",30.205293,-93.180509
restaurant_84791,"Popeyes 8700 Ulmerton Rd Largo, Florida 33771 - USA",27.893861,-82.759365
restaurant_83489,"Popeyes 14901 N Florida Ave Tampa, Florida 33613 - USA",28.085127,-82.459145
restaurant_81817,"Popeyes 301 N Enterprise Blvd Lake Charles, Louisiana 70601 - USA",30.235339,-93.204079
restaurant_84790,"Popeyes 8315 W Hillsborough Ave Tampa, Florida 33615 - USA",27.9971,-82.576578
restaurant_84813,"Popeyes 7441 Gall Blvd Zephyrhills, Florida 33541 - USA",28.265625,-82.188717
restaurant_81946,"Popeyes 928 N Woodland Blvd Deland, Florida 32720 - USA",29.043518,-81.304459
restaurant_82944,"Popeyes 2216 E Fletcher Ave Tampa, Florida 33612 - USA",28.069554,-82.433813
restaurant_81831,"Popeyes 125 W Prien Lake Rd Lake Charles, Louisiana 70601 - USA",30.197997,-93.219933
restaurant_81819,"Popeyes 2619 W Waters Ave Tampa, Florida 33614 - USA",28.025703,-82.486084
restaurant_81926,"Popeyes 1601 Sampson St Westlake, Louisiana 70669 - USA",30.253386,-93.258421
restaurant_81987,"Popeyes 901 Country Club Rd Lake Charles, Louisiana 70605 - USA",30.168392,-93.233165
restaurant_83582,"Popeyes 2701 E Busch Blvd Tampa, Florida 33612 - USA",28.032165,-82.428607
restaurant_82875,"Popeyes 5950 Park Blvd N Pinellas Park, Florida 33781 - USA",27.83882,-82.715108
restaurant_83637,"Popeyes 4302 N State Line Ave Texarkana, Arkansas 71854 - USA",33.465968,-94.042582
restaurant_82202,"Popeyes 920 E Fourth St Dequincy, Louisiana 70633 - USA",30.451236,-93.425302
restaurant_82802,"Popeyes 2201 E Hillsborough Ave Tampa, Florida 33610 - USA",27.995714,-82.434464
restaurant_81862,"Popeyes 2337 W Green St Tampa, Florida 33607 - USA",27.956684,-82.484589
restaurant_81845,"Popeyes 101 N Ridgewood Ave Daytona Beach, Florida 32114 - USA",29.211233,-81.022606
restaurant_82458,"Popeyes 2561 Enterprise Rd Orange City, Florida 32763 - USA",28.917467,-81.294607
restaurant_82220,"Popeyes 102 N Cities Service Hwy Sulphur, Louisiana 70663 - USA",30.228261,-93.325021
restaurant_86562,"Popeyes 16530 SR 50 Clermont, Florida 34711 - USA",28.545761,-81.68044
restaurant_237541,"Popeyes 5410 Staley Drive Tampa, Florida 33610 - USA",27.996887,-82.371674
restaurant_82116,"Popeyes 402 E Main St Apopka, Florida 32703 - USA",28.672892,-81.502933
restaurant_82898,"Popeyes 5156 S Dale Mabry Hwy Tampa, Florida 33611 - USA",27.889518,-82.50593
restaurant_86645,"Popeyes 600 34th Street North St. Petersburg, Florida 33713 - USA",27.778554,-82.679806
restaurant_85140,"Popeyes 4658 State Route 46 Sanford, Florida 32771 - USA",28.811882,-81.34426
restaurant_81723,"Popeyes 1613 Ruth St Sulphur, Louisiana 70663 - USA",30.223923,-93.376862
restaurant_83338,"Popeyes 11706 Tampa Gateway Blvd Seffner, Florida 33584 - USA",28.009916,-82.300965
restaurant_85066,"Popeyes 1678 Taylor Road Port Orange, Florida 32128 - USA",29.104152,-81.034563
restaurant_86420,"Popeyes 1118 W. MLK Blvd Seffner, Florida 33584 - USA",27.981045,-82.292572
restaurant_87759,"Popeyes 1715 E Tipton Street Seymour, Indiana 47274 - USA",38.95863,-85.86116
restaurant_85230,"Popeyes 10923 W. Colonial Drive Ocoee, Florida 34761 - USA",28.552157,-81.541022
restaurant_81878,"Popeyes 460 W State Road 436 Altamonte Springs, Florida 32714 - USA",28.661391,-81.399224
restaurant_82112,"Popeyes 2660 S Hwy 17-92 Sanford, Florida 32771 - USA",28.778851,-81.275264
restaurant_81775,"Popeyes 108 S Kings Ave Brandon, Florida 33511 - USA",27.936483,-82.294201
restaurant_86702,"Popeyes 2663 N Hiawassee Rd Orlando, Florida 32818 - USA",28.579386,-81.475582
restaurant_85054,"Popeyes 6151 North Orange Blossom Trail Orlando, Florida 32810 - USA",28.61186,-81.429894
restaurant_82149,"Popeyes 2005 S Frontage Rd Plant City, Florida 33563 - USA",28.035922,-82.10319
restaurant_86764,"Popeyes 3191 Highway 44 New Smyrna Beach, Florida 32168 - USA",29.013299,-80.9934
restaurant_82036,"Popeyes 1035 Lee Rd Orlando, Florida 32810 - USA",28.606182,-81.39625
restaurant_81802,"Popeyes 5245 W Colonial Dr Orlando, Florida 32808 - USA",28.552862,-81.451947
restaurant_85435,"Popeyes 200 E. SR 436 Casselberry, Florida 32707 - USA",28.659064,-81.337299
restaurant_84846,"Popeyes 201 W Alexander St Plant City, Florida 33563 - USA",27.988433,-82.123014
restaurant_241409,"Popeyes 1540 S Stratford Rd Winston-Salem, North Carolina 27103 - USA",36.073173,-80.303877
restaurant_83900,"Popeyes 1025 Peppers Ferry Rd Wytheville, Virginia 24382 - USA",36.965228,-81.067365
restaurant_81659,"Popeyes 3981 Columbia St Orlando, Florida 32805 - USA",28.527312,-81.425816
restaurant_86465,"Popeyes 5750 Belleville Crossing St Belleville, Illinois 62226 - USA",38.526183,-90.035114
restaurant_81822,"Popeyes 45 N Orange Blossom Trl Orlando, Florida 32805 - USA",28.543654,-81.397019
restaurant_82872,"Popeyes 2550 US Highway 98 N Lakeland, Florida 33805 - USA",28.07585,-81.961096
restaurant_240664,"Popeyes N Green Mount Rd & Central Park Dr O'Fallon, Illinois 62269 - USA",38.572675,-89.929151
restaurant_84900,"Popeyes 10551 Big Bend Road Riverview, Florida 33579 - USA",27.791568,-82.333523
restaurant_81801,"Popeyes 6725 W Sand Lake Rd Orlando, Florida 32819 - USA",28.450331,-81.469272
restaurant_86440,"Popeyes 7541 West Irlo Bronson Memorial Hwy. Kissimmee, Florida 34747 - USA",28.334956,-81.590037
restaurant_82048,"Popeyes 6011 N Illinois St Fairview Heights, Illinois 62208 - USA",38.587708,-89.985352
restaurant_237296,"Popeyes 7791 North Point Boulevard Winston-Salem, North Carolina 27106 - USA",36.15061,-80.279836
restaurant_86733,"Popeyes 230 West Mitchell Hammock Road Oviedo, Florida 32765 - USA",28.655162,-81.211937
restaurant_237700,"Popeyes 500 N MLK Drive Winston-Salem, North Carolina 27101 - USA",36.10078,-80.22916
restaurant_83636,"Popeyes 5760 S Orange Blossom Trl Orlando, Florida 32839 - USA",28.474709,-81.39727
restaurant_85198,"Popeyes 1711 East Grand Avenue Marshall, Texas 75670 - USA",32.548958,-94.351173
restaurant_81846,"Popeyes 5700 Lake Underhill Rd Orlando, Florida 32807 - USA",28.538702,-81.310144
restaurant_85132,"Popeyes 3763 Sun City Center Blvd Sun City Center, Florida 33573 - USA",27.711553,-82.375364
restaurant_86715,"Popeyes 3150 Telegraph Rd St. Louis, Missouri 63125 - USA",38.498626,-90.299452
restaurant_84847,"Popeyes 3815 S Florida Ave Lakeland, Florida 33813 - USA",27.994915,-81.957497
restaurant_241315,"Popeyes 8001 S Orange Blossom Trail FC04 Orlando, Florida 32809 - USA",28.446552,-81.395428
restaurant_84984,"Popeyes 4103 First Missouri Credit Union Dr St. Louis, Missouri 63129 - USA",38.485315,-90.351823
restaurant_86423,"Popeyes 43392 U.S. Hwy 27 Davenport, Florida 33837 - USA",28.226008,-81.646841
restaurant_82502,"Popeyes 898 N Wheeler/ Hwy 96 N Jasper, Texas 75951 - USA",30.928643,-93.996473
restaurant_84899,"Popeyes 4547 South Semoran Blvd Orlando, Florida 32822 - USA",28.497817,-81.309446
restaurant_85247,"Popeyes 1506 McCoy Road Orlando, Florida 32809 - USA",28.450582,-81.35993
restaurant_84838,"Popeyes 5011 W Irlo Bronson Memorial Kissimmee, Florida 34746 - USA",28.3336,-81.483656
restaurant_84965,"Popeyes 710 Radford Blvd Dillon, South Carolina 29536 - USA",34.437813,-79.370135
restaurant_82626,"Popeyes 12131 S Orange Blossom Trl Orlando, Florida 32837 - USA",28.389481,-81.403986
restaurant_84989,"Popeyes 12001 East Colonial Road Orlando, Florida 32826 - USA",28.566791,-81.203041
restaurant_86614,"Popeyes 9501 Gravois Road Affton, Missouri 63123 - USA",38.553315,-90.321995
restaurant_84839,"Popeyes 602 Havendale Blvd Auburndale, Florida 33823 - USA",28.05297,-81.775732
restaurant_234568,"Popeyes Hwy 157 Near Collinsport Dr, Collinsville, IL Collinsville, Illinois 62234 - USA",38.68495,-90.011088
restaurant_82926,"Popeyes 7777 Burlington Pike Florence, Kentucky 41042 - USA",39.000145,-84.64448
restaurant_88016,"Popeyes 3707 US-301 Ellenton, Florida 34222 - USA",27.521278,-82.526675
restaurant_81990,"Popeyes 35988 Hwy 27 Haines City, Florida 33844 - USA",28.123231,-81.640299
restaurant_89299,"Popeyes 852 Buenaventura Blvd. Kissimmee, Florida 34743 - USA",28.342928,-81.363417
restaurant_81877,"Popeyes 324 W Vine St Kissimmee, Florida 34741 - USA",28.30428,-81.407484
restaurant_81981,"Popeyes 3390 1st St Bradenton, Florida 34208 - USA",27.469997,-82.56332
restaurant_82864,"Popeyes 25 6th St SW Winter Haven, Florida 33880 - USA",28.022033,-81.733411
restaurant_86724,"Popeyes 3397 South Orange Blossom Trail Kissimmee, Florida 34746 - USA",28.260207,-81.438787
restaurant_83218,"Popeyes 8100 Manchester Rd Brentwood, Missouri 63144 - USA",38.611345,-90.336724
restaurant_81945,"Popeyes 3515 Natural Bridge Ave St. Louis, Missouri 63107 - USA",38.661041,-90.215951
restaurant_82792,"Popeyes 1701 W Evergreen Ave Effingham, Illinois 62401 - USA",39.136396,-88.566119
restaurant_82126,"Popeyes 1604 Link Ave Orange, Texas 77630 - USA",30.107085,-93.746544
restaurant_238496,"Popeyes 3304 Nameoki Rd Granite City, Illinois 62040 - USA",38.723699,-90.122251
restaurant_81944,"Popeyes 7115 Page Ave St. Louis, Missouri 63133 - USA",38.677023,-90.313954
restaurant_84544,"Popeyes 502 Main St Covington, Kentucky 41011 - USA",39.085167,-84.517206
restaurant_85445,"Popeyes 15903 Manchester Road Ellisville, Missouri 63011 - USA",38.592932,-90.587223
restaurant_85494,"Popeyes 1402 Church Street Conway, South Carolina 29526 - USA",33.84,-79.06
restaurant_84913,"Popeyes 1046 Cypress Pkwy Poinciana, Florida 34759 - USA",28.14631,-81.44459
restaurant_82071,"Popeyes 9854 Halls Ferry Rd St. Louis, Missouri 63136 - USA",38.743357,-90.252009
restaurant_86670,"Popeyes 10545 Page Ave St. Louis, Missouri 63132 - USA",38.692239,-90.393717
restaurant_85193,"Popeyes (Military Post Access Required) 266 Replacement Road Fort Leonard Wood, Missouri 65473 - USA",37.76106,-92.11657
restaurant_83775,"Popeyes 6225 Glenway Ave Cincinnati, Ohio 45211 - USA",39.144629,-84.623915
restaurant_81887,"Popeyes 820 N Washington Blvd Sarasota, Florida 34236 - USA",27.343329,-82.530727
restaurant_81971,"Popeyes 20 Airport Rd St. Louis, Missouri 63135 - USA",38.748125,-90.308014
restaurant_84987,"Popeyes 3228 W Gate City Blvd. Greensboro, North Carolina 27407 - USA",36.041621,-79.844732
restaurant_82619,"Popeyes 2877 Target Dr St. Louis, Missouri 63136 - USA",38.773359,-90.2685
restaurant_85443,"Popeyes 953 Northwest Plaza Drive St. Ann, Missouri 63074 - USA",38.735691,-90.40078
restaurant_85304,"Popeyes 5910 South Kings Highway Myrtle Beach, South Carolina 29575 - USA",33.630811,-78.961981
restaurant_83845,"Popeyes 4402 Glen Este Withamsville Rd Cincinnati, Ohio 45245 - USA",39.093792,-84.262567
restaurant_85537,"Popeyes 35 West Mitchell Avenue Cincinnati, Ohio 45217 - USA",39.160607,-84.506012
restaurant_83136,"Popeyes 2700 Madison Road Cincinnati, Ohio 45209 - USA",39.146322,-84.442393
restaurant_85342,"Popeyes 3551 US HIghway 41 South Terre Haute, Indiana 47802 - USA",39.424107,-87.416902
restaurant_237699,"Popeyes 612 SR-60 Lake Wales, Florida 33853 - USA",27.89893,-81.60377
restaurant_86497,"Popeyes 951 N. Hwy 67 Florissant, Missouri 63031 - USA",38.799857,-90.329142
restaurant_240631,"Popeyes 3655 Cheney Highway Titusville, Florida 32780 - USA",28.55,-80.853
restaurant_86732,"Popeyes 1100 E Bessemer Ave Greensboro, North Carolina 27407 - USA",36.084881,-79.771769
restaurant_82277,"Popeyes 7131 Reading Rd Cincinnati, Ohio 45237 - USA",39.190653,-84.462997
restaurant_84410,"Popeyes 106 Pisgah Church Rd Greensboro, North Carolina 27455 - USA",36.134054,-79.790888
restaurant_81744,"Popeyes 409 E. Marshall Avenue Longview, Texas 75601 - USA",32.500853,-94.734281
restaurant_82457,"Popeyes 2390 Homer M Adams Pkwy Alton, Illinois 62002 - USA",38.916457,-90.152269
restaurant_83923,"Popeyes 1640 Jungermann Rd Saint Peters, Missouri 63304 - USA",38.745491,-90.591873
restaurant_85123,"Popeyes 9760 Colerain Avenue Cincinnati, Ohio 45251 - USA",39.249293,-84.596209
restaurant_82831,"Popeyes 950 N Main St Vidor, Texas 77662 - USA",30.134315,-94.015793
restaurant_239399,"Popeyes 1041 Regency Pkwy St. Charles, Missouri 63303 - USA",38.784303,-90.52782
restaurant_86674,"Popeyes 9200 Reading Rd Cincinnati, Ohio 45215 - USA",39.227144,-84.437964
restaurant_239865,"Popeyes 6674 Keaton Crossing Blvd O'Fallon, Missouri 63368 - USA",38.723444,-90.70044
restaurant_81842,"Popeyes 4049 Gulfway Dr Port Arthur, Texas 77642 - USA",29.913361,-93.915642
restaurant_87085,"Popeyes 2110 Gilmer Road Longview, Texas 75604 - USA",32.528547,-94.786826
restaurant_84284,"Popeyes 4850 Twin City Hwy Groves, Texas 77619 - USA",29.939726,-93.93831
restaurant_82141,"Popeyes 1519 N University Dr Nacogdoches, Texas 75961 - USA",31.616618,-94.639849
restaurant_83871,"Popeyes 10601 Springfield Pike Cincinnati, Ohio 45215 - USA",39.260711,-84.470105
restaurant_84882,"Popeyes 8150 Rogers Ave Fort Smith, Arkansas 72903 - USA",35.348566,-94.342324
restaurant_82140,"Popeyes 1804 Highway 365 Nederland, Texas 77627 - USA",29.961051,-93.980975
restaurant_86604,"Popeyes 3301 Fayetteville Rd. Lumberton, North Carolina 28358 - USA",34.641193,-78.99974
restaurant_239863,"Popeyes 780 N 18th St Ozark, Missouri 65721 - USA",37.025781,-93.227138
restaurant_83468,"Popeyes 1165 Kemper Meadow Dr Cincinnati, Ohio 45240 - USA",39.29221,-84.522382
restaurant_86742,"Popeyes 401 Salt Lick Rd. St. Peters, Missouri 63376 - USA",38.797023,-90.656769
restaurant_241598,"Popeyes 11820 Lebanon Rd Cincinnati, Ohio 45241 - USA",39.287842,-84.395679
restaurant_241644,"Popeyes 2601 Highway 69 N Nederland, Texas 77627 - USA",29.974476,-94.024892
restaurant_86660,"Popeyes 6475 Ronald Reagan Dr. Lake St Louis, Missouri 63367 - USA",38.764025,-90.78558
restaurant_83695,"Popeyes 2301 Zero St Fort Smith, Arkansas 72901 - USA",35.328203,-94.410628
restaurant_237861,"Popeyes 505 N Plaza Dr. Van Buren, Arkansas 72956 - USA",35.46043,-94.356173
restaurant_83928,"Popeyes 5102 Dixie Hwy Fairfield, Ohio 45014 - USA",39.339965,-84.533924
restaurant_81859,"Popeyes 1430 Washington Blvd Beaumont, Texas 77705 - USA",30.056911,-94.099072
restaurant_86528,"Popeyes 9751 Mason Montgomery Rd Mason, Ohio 45040 - USA",39.296298,-84.315702
restaurant_239799,"Popeyes 745 Us Highway 259 N Kilgore, Texas 75662 - USA",32.387608,-94.868106
restaurant_82593,"Popeyes 1101 NC Highway 61 Whitsett, North Carolina 27377 - USA",36.063497,-79.563525
restaurant_239846,"Popeyes 108 S LHS Dr. Lumberton, Texas 77657 - USA",30.254297,-94.215806
restaurant_82284,"Popeyes 5902B Eastex Fwy Beaumont, Texas 77708 - USA",30.128162,-94.156333
restaurant_240837,"Popeyes 510 I-10 Frontage Rd Beaumont, Texas 77706 - USA",30.086021,-94.134943
restaurant_239429,"Popeyes 711 McCroskey St Nixa, Missouri 65714 - USA",37.053235,-93.302792
restaurant_84970,"Popeyes 270 N State Rd 135 Greenwood, Indiana 46142 - USA",39.619483,-86.159037
restaurant_84164,"Popeyes 6432 Phelan Blvd Beaumont, Texas 77706 - USA",30.07825,-94.169794
restaurant_85442,"Popeyes 2981 Princeton Road Hamilton, Ohio 45011 - USA",39.390874,-84.515358
restaurant_86565,"Popeyes 1604 N Jefferson Av Mount Pleasant, Texas 75455 - USA",33.172896,-94.97098
restaurant_83088,"Popeyes 7088 Liberty Centre Dr Liberty Township, Ohio 45069 - USA",39.371307,-84.384741
restaurant_84854,"Popeyes (Military Post Access Required) 5934 Ardennes Street Fort Bragg, North Carolina 28307 - USA",35.131906,-79.025216
restaurant_84792,"Popeyes 5020 E County Line Rd Indianapolis, Indiana 46237 - USA",39.636982,-86.083252
restaurant_82942,"Popeyes (Military Post Access Required) 1017 Canopy Ln Fort Bragg, North Carolina 28307 - USA",35.11836,-79.01316
restaurant_84610,"Popeyes 1710 S Glenstone Ave Springfield, Missouri 65804 - USA",37.183937,-93.261882
restaurant_82191,"Popeyes 1106 S Timberland Drive Lufkin, Texas 75901 - USA",31.326046,-94.726181
restaurant_84298,"Popeyes (Military Post Access Required) 5476 Butner Rd Building 8 Fort Bragg, North Carolina 28307 - USA",35.15224,-79.020662
restaurant_85085,"Popeyes 3195 South Campbell Avenue Springfield, Missouri 65807 - USA",37.156521,-93.296135
restaurant_86425,"Popeyes 2176 Skibo Rd Fayetteville, North Carolina 28314 - USA",35.04579,-78.976656
restaurant_83135,"Popeyes 2430 Kings Mills Rd Mason, Ohio 45040 - USA",39.358137,-84.260824
restaurant_237834,"Popeyes 2515 S Horner Boulevard Sanford, North Carolina 27330 - USA",35.45968,-79.14304
restaurant_81949,"Popeyes 116 W Merritt Island Cswy Merritt Island, Florida 32952 - USA",28.357265,-80.701537
restaurant_86624,"Popeyes (Military Post Access Required) 2171 Reilly Rd., Fort Bragg, North Carolina 28307 - USA",35.13167,-78.99659
restaurant_83930,"Popeyes 3265 N Service Rd E Foristell, Missouri 63348 - USA",38.816972,-90.949241
restaurant_84037,"Popeyes 2100 W Martin Luther King Blvd Fayetteville, Arkansas 72701 - USA",36.055883,-94.189915
restaurant_83421,"Popeyes 538 E Robinson Ave Springdale, Arkansas 72764 - USA",36.167474,-94.126713
restaurant_82836,"Popeyes 3308 Bragg Blvd Fayetteville, North Carolina 28303 - USA",35.077016,-78.934568
restaurant_85219,"Popeyes 720 South Main Street Graham, North Carolina 27253 - USA",36.058627,-79.399727
restaurant_84906,"Popeyes 2304 E Main St Plainfield, Indiana 46168 - USA",39.712782,-86.370946
restaurant_82832,"Popeyes 2313 Gillespie St Fayetteville, North Carolina 28306 - USA",35.018639,-78.895369
restaurant_84997,"Popeyes 1231 West Kearney Street Springfield, Missouri 65803 - USA",37.241139,-93.306278
restaurant_88505,"Popeyes 1260 OH-63 Monroe, Ohio 45050 - USA",39.440285,-84.332753
restaurant_84616,"Popeyes 2902 Madison Ave Indianapolis, Indiana 46225 - USA",39.72401,-86.151633
restaurant_84881,"Popeyes 5780 W Sunset Ave Springdale, Arkansas 72762 - USA",36.175953,-94.194537
restaurant_241630,"Popeyes 1397 US-60 Republic, Missouri 65738 - USA",37.132975,-93.458413
restaurant_84971,"Popeyes 9302 East Highway 36 Avon, Indiana 46123 - USA",39.764051,-86.356435
restaurant_234811,"Popeyes 2044 W. Pleasant Grove Rd. Rogers, Arkansas 72758 - USA",36.28259,-94.148667
restaurant_84570,"Popeyes 3128 E Washington St Indianapolis, Indiana 46201 - USA",39.769031,-86.110802
restaurant_86717,"Popeyes 14920 Tamiami Trail North Port, Florida 34287 - USA",27.038799,-82.223676
restaurant_83664,"Popeyes 2325 W Walnut St Rogers, Arkansas 72756 - USA",36.334594,-94.151646
restaurant_84539,"Popeyes 3021 W 16th St Indianapolis, Indiana 46222 - USA",39.787558,-86.208868
restaurant_85051,"Popeyes 10087 East Washington Street Indianapolis, Indiana 46229 - USA",39.774534,-85.988552
restaurant_84606,"Popeyes 2402 East 38th Street Indianapolis, Indiana 46218 - USA",39.825755,-86.121324
restaurant_86666,"Popeyes 2709 US Hwy 27 S Sebring, Florida 33870 - USA",27.472049,-81.446749
restaurant_84774,"Popeyes 7615 Pendleton Pike Indianapolis, Indiana 46226 - USA",39.833536,-86.032102
restaurant_85205,"Popeyes 1981 North State Street Greenfield, Indiana 46140 - USA",39.81287,-85.76902
restaurant_86691,"Popeyes 829 West Central Avenue Springboro, Ohio 45066 - USA",39.56221,-84.26175
restaurant_90871,"Popeyes 1721 East Centerton Blvd & Greenhouse Rd, Centerton, AR Centerton, Arkansas 72712 - USA",36.357454,-94.256009
restaurant_82121,"Popeyes 2225 W New Haven Ave Melbourne, Florida 32904 - USA",28.078477,-80.658259
restaurant_86445,"Popeyes 24471 Sandhill Blvd. Punta Gorda, Florida 33983 - USA",27.022581,-82.045459
restaurant_84607,"Popeyes 3633 W 86th St Indianapolis, Indiana 46268 - USA",39.911215,-86.223567
restaurant_85248,"Popeyes 725 Palm Bay Road, NE West Melbourne, Florida 32904 - USA",28.035987,-80.651572
restaurant_84974,"Popeyes 6161 East 82nd Street Indianapolis, Indiana 46250 - USA",39.904825,-86.060846
restaurant_84917,"Popeyes 2316 E 5th St Tyler, Texas 75701 - USA",32.33266,-95.272373
restaurant_84473,"Popeyes 3938 Melrose Ave NW Roanoke, Virginia 24017 - USA",37.295106,-80.001414
restaurant_83673,"Popeyes 5930 Whitestown Pkwy Whitestown, Indiana 46075 - USA",39.947944,-86.356724
restaurant_241550,"Popeyes 5798 N Springboro Pike Dayton, Ohio 45449 - USA",39.673683,-84.221291
restaurant_84793,"Popeyes 625 E Carmel Dr Carmel, Indiana 46032 - USA",39.961661,-86.115969
restaurant_235428,"Popeyes 3500 Hwy 412 East Siloam Springs, Arkansas 72761 - USA",36.180429,-94.50704
restaurant_241028,"Popeyes 6910 Fayetteville Rd Durham, North Carolina 27713 - USA",35.904785,-78.942199
restaurant_85378,"Popeyes 1379 Towne Square Blvd NW Roanoke, Virginia 24012 - USA",37.319011,-79.962637
restaurant_240722,"Popeyes 3400 Westgate Dr Durham, North Carolina 27707 - USA",35.966028,-78.962411
restaurant_84973,"Popeyes 9403 Ambleside Drive Fishers, Indiana 46038 - USA",39.97944,-86.00106
restaurant_86638,"Popeyes 4025 Wilmington Pike Dayton, Ohio 45440 - USA",39.68782,-84.13158
restaurant_84124,"Popeyes 1603 W Church St Livingston, Texas 77351 - USA",30.712727,-94.955321
restaurant_85664,"Popeyes 2102 Missouri Blvd Jefferson City, Missouri 65109 - USA",38.581597,-92.205401
restaurant_85042,"Popeyes 2723 Guess Road Durham, North Carolina 27705 - USA",36.029743,-78.927334
restaurant_82859,"Popeyes 12403 US Highway 35 NW Jeffersonville, Ohio 43128 - USA",39.616493,-83.603475
restaurant_83207,"Popeyes 3796 Salem Ave Dayton, Ohio 45406 - USA",39.796324,-84.25048
restaurant_86641,"Popeyes 2400 John Brantley Blvd Raleigh, North Carolina 27623 - USA",35.87427,-78.78974
restaurant_86669,"Popeyes 3904 Western Blvd Raleigh, North Carolina 27606 - USA",35.784971,-78.690456
restaurant_84679,"Popeyes 1701 Pinewinds Dr Raleigh, North Carolina 27603 - USA",35.716461,-78.655054
restaurant_81974,"Popeyes 2801 S Grand Ave E Springfield, Illinois 62703 - USA",39.787749,-89.613061
restaurant_83186,"Popeyes 2496 Wabash Ave Springfield, Illinois 62704 - USA",39.763724,-89.703414
restaurant_85636,"Popeyes 1100 S. Main Street Englewood, Ohio 45322 - USA",39.86126,-84.282892
restaurant_241572,"Popeyes 6793 Miller Ln Dayton, Ohio 45414 - USA",39.845867,-84.192694
restaurant_238009,"Popeyes 1222 Sunset Avenue Clinton, North Carolina 28328 - USA",34.992061,-78.345886
restaurant_239687,"Popeyes 922 Durham Road Roxboro, North Carolina 27573 - USA",36.37889,-78.9832
restaurant_84323,"Popeyes 3699 New Bern Ave Raleigh, North Carolina 27610 - USA",35.797681,-78.578289
restaurant_86411,"Popeyes 3318 Capital Blvd. Raleigh, North Carolina 27604 - USA",35.824616,-78.586444
restaurant_84964,"Popeyes 81 Hancock Bridge Parkway West Cape Coral, Florida 33991 - USA",26.650366,-81.97659
restaurant_83363,"Popeyes 3111 NE Pine Island Rd Cape Coral, Florida 33909 - USA",26.682709,-81.90473
restaurant_83417,"Popeyes 710 Highway Cleveland, Texas 77327 - USA",30.337179,-95.100472
restaurant_88592,"Popeyes 13113-7 I-10 E Mont Belvieu, Texas 77523 - USA",29.826929,-94.852714
restaurant_85507,"Popeyes 7120 Knightdale Boulevard Knightdale, North Carolina 27545 - USA",35.797749,-78.48999
restaurant_84135,"Popeyes 8909 20th St Vero Beach, Florida 32966 - USA",27.638434,-80.511158
restaurant_84490,"Popeyes 2134 S Limestone St Springfield, Ohio 45505 - USA",39.896912,-83.81094
restaurant_83369,"Popeyes 4400 Palm Beach Blvd Fort Myers, Florida 33905 - USA",26.669447,-81.823908
restaurant_81943,"Popeyes 3238 Fowler St Fort Myers, Florida 33901 - USA",26.617935,-81.862523
restaurant_85403,"Popeyes 419 Highway 70 East Selma, North Carolina 27576 - USA",35.52111,-78.2925
restaurant_86657,"Popeyes 3700 Hyde Park Ave Columbia, Missouri 65201 - USA",38.909133,-92.328941
restaurant_86738,"Popeyes 1110 US 1 Vero Beach, Florida 32960 - USA",27.621861,-80.388799
restaurant_83247,"Popeyes 822 NW Park St Okeechobee, Florida 34972 - USA",27.24323,-80.820566
restaurant_84705,"Popeyes 2130 S Rangeline Rd Joplin, Missouri 64804 - USA",37.066605,-94.478485
restaurant_82378,"Popeyes 6804 Garth Rd Baytown, Texas 77521 - USA",29.800355,-94.980775
restaurant_81743,"Popeyes 2120 N Alexander Dr Baytown, Texas 77520 - USA",29.744267,-94.949912
restaurant_238101,"Popeyes 11111 Fm 1960 E Houston, Texas 77336 - USA",30.019651,-95.108867
restaurant_85334,"Popeyes 111 Business Loop 70 East Columbia, Missouri 65203 - USA",38.965238,-92.335567
restaurant_82486,"Popeyes 576 W Hickpoohe Labelle, Florida 33935 - USA",26.761808,-81.448176
restaurant_84354,"Popeyes 904 Linden Ave Oxford, North Carolina 27565 - USA",36.298073,-78.582606
restaurant_85355,"Popeyes 14540 FM-2100 Crosby, Texas 77532 - USA",29.897975,-95.06294
restaurant_82514,"Popeyes 2710 Lee Blvd Lehigh Acres, Florida 33971 - USA",26.617781,-81.668945
restaurant_86695,"Popeyes 22113 Walton Ave New Caney, Texas 77357 - USA",30.154625,-95.222693
restaurant_82640,"Popeyes 19151 W Lake Houston Parkway Atascocita, Texas 77346 - USA",29.997123,-95.162413
restaurant_82649,"Popeyes 940 US Highway 42 NE London, Ohio 43140 - USA",39.953777,-83.37942
restaurant_82506,"Popeyes 24895 FM 1314 Rd Porter, Texas 77365 - USA",30.104009,-95.233417
restaurant_84857,"Popeyes 25764 Loop 494 Houston, Texas 77339 - USA",30.071063,-95.241241
restaurant_235259,"Popeyes 2071 Stringtown Road Grove City, Ohio 43123 - USA",39.87808,-83.05841
restaurant_82574,"Popeyes 1509 W Fairmont Pkwy La Porte, Texas 77571 - USA",29.651511,-95.034724
restaurant_81813,"Popeyes 506 Sheldon Rd Channelview, Texas 77530 - USA",29.78,-95.124253
restaurant_85554,"Popeyes 3705 S. High Street Columbus, Ohio 43207 - USA",39.885446,-82.999975
restaurant_82283,"Popeyes 2904 61st St Galveston, Texas 77551 - USA",29.267843,-94.826608
restaurant_83942,"Popeyes 11527 N Sam Houston Pkwy E Humble, Texas 77396 - USA",29.935153,-95.215677
restaurant_240285,"Popeyes 2802 Candlers Mountain Road Lynchburg, Virginia 24502 - USA",37.37067,-79.18318
restaurant_82855,"Popeyes 107 S 25th St Fort Pierce, Florida 34947 - USA",27.446821,-80.350284
restaurant_86520,"Popeyes 9111 Will Clayton Pkwy. Humble, Texas 77338 - USA",29.979566,-95.247531
restaurant_85404,"Popeyes 9007 E Sam Houston Pkwy N Houston, Texas 77044 - USA",29.854853,-95.187998
restaurant_81805,"Popeyes 103 FM 1960 Bypass East Humble, Texas 77338 - USA",30.005469,-95.266043
restaurant_241037,"Popeyes 20121 US-59 #02130 Humble, Texas 77338 - USA",30.006895,-95.273056
restaurant_83371,"Popeyes 15125 Wallisville Rd Houston, Texas 77049 - USA",29.807218,-95.171291
restaurant_239913,"Popeyes 1207 Dabney Dr Henderson, North Carolina 27536 - USA",36.330807,-78.432317
restaurant_84996,"Popeyes 4328 W Broad Street Columbus, Ohio 43228 - USA",39.95325,-83.116581
restaurant_83580,"Popeyes 6335 Prentiss School Pl Canal Winchester, Ohio 43110 - USA",39.853037,-82.830087
restaurant_82089,"Popeyes 3315 Palmer Hwy Texas City, Texas 77590 - USA",29.394859,-94.945612
restaurant_82279,"Popeyes 1421 Center St Deer Park, Texas 77536 - USA",29.698309,-95.123344
restaurant_85332,"Popeyes 8506 Spencer Highway La Porte, Texas 77571 - USA",29.663579,-95.107021
restaurant_81830,"Popeyes 1601 S US Highway 1 Fort Pierce, Florida 34950 - USA",27.432199,-80.326251
restaurant_84942,"Popeyes 8415 FM 1960 Bypass Road West Humble, Texas 77338 - USA",30.005342,-95.298205
restaurant_85383,"Popeyes 311 Grand Central Avenue Vienna, West Virginia 26105 - USA",39.300982,-81.548865
restaurant_234687,"Popeyes 1480 West Broad St Columbus, Ohio 43222 - USA",39.95776,-83.040039
restaurant_86601,"Popeyes 2585 League City Parkway League City, Texas 77573 - USA",29.502927,-95.043529
restaurant_237714,"Popeyes 4946 South 25th Street Fort Pierce, Florida 34981 - USA",27.374581,-80.349972
restaurant_81766,"Popeyes 995 Federal Road Jacinto City, Texas 77029 - USA",29.772465,-95.214472
